{
"type": "FeatureCollection",
"name": "points",
"crs": { "type": "name", "properties": { "name": "urn:ogc:def:crs:OGC:1.3:CRS84" } },
"features": [
{ "type": "Feature", "properties": { "osm_id": "153554776", "name": "New Prospect Fire Department", "other_tags": "\"amenity\"=>\"fire_station\",\"gnis:County\"=>\"Lawrence\",\"gnis:County_num\"=>\"099\",\"gnis:ST_alpha\"=>\"TN\",\"gnis:ST_num\"=>\"47\",\"gnis:id\"=>\"1295613\",\"import_uuid\"=>\"bb7269ee-502a-5391-8056-e3ce0e66489c\"" }, "geometry": { "type": "Point", "coordinates": [ -87.2506676, 35.2248169 ] } },
{ "type": "Feature", "properties": { "osm_id": "357805416", "name": "COLLETTSVILLE VOLUNTEER FIRE DEPARTMENT", "other_tags": "\"addr:city\"=>\"Collettsville\",\"addr:housenumber\"=>\"5430\",\"addr:postcode\"=>\"28611\",\"addr:state\"=>\"NC\",\"addr:street\"=>\"Adako Road\",\"amenity\"=>\"fire_station\",\"denomination\"=>\"baptist\",\"gnis:county_id\"=>\"027\",\"gnis:created\"=>\"06/01/1990\",\"gnis:feature_id\"=>\"1017886\",\"gnis:state_id\"=>\"37\"" }, "geometry": { "type": "Point", "coordinates": [ -81.6755206, 35.924483 ] } },
{ "type": "Feature", "properties": { "osm_id": "367128546", "name": "Etowah Fire Volunteer Department", "other_tags": "\"addr:state\"=>\"AR\",\"amenity\"=>\"fire_station\",\"gnis:county_name\"=>\"Mississippi\",\"gnis:feature_id\"=>\"2116408\",\"gnis:import_uuid\"=>\"57871b70-0100-4405-bb30-88b2e001a944\",\"gnis:reviewed\"=>\"no\"" }, "geometry": { "type": "Point", "coordinates": [ -90.2372207, 35.7273707 ] } },
{ "type": "Feature", "properties": { "osm_id": "367128714", "name": "Blytheville C B Emergency Squad", "other_tags": "\"addr:state\"=>\"AR\",\"amenity\"=>\"fire_station\",\"gnis:county_name\"=>\"Mississippi\",\"gnis:feature_id\"=>\"2119164\",\"gnis:import_uuid\"=>\"57871b70-0100-4405-bb30-88b2e001a944\",\"gnis:reviewed\"=>\"no\"" }, "geometry": { "type": "Point", "coordinates": [ -89.9044187, 35.9294366 ] } },
{ "type": "Feature", "properties": { "osm_id": "367129002", "name": "Anthonyville Volunteer Fire Department", "other_tags": "\"addr:state\"=>\"AR\",\"amenity\"=>\"fire_station\",\"gnis:county_name\"=>\"Crittenden\",\"gnis:feature_id\"=>\"2116083\",\"gnis:import_uuid\"=>\"57871b70-0100-4405-bb30-88b2e001a944\",\"gnis:reviewed\"=>\"no\"" }, "geometry": { "type": "Point", "coordinates": [ -90.3391917, 35.040112 ] } },
{ "type": "Feature", "properties": { "osm_id": "367129092", "name": "Armorel Volunteer Fire Department", "other_tags": "\"addr:state\"=>\"AR\",\"amenity\"=>\"fire_station\",\"gnis:county_name\"=>\"Mississippi\",\"gnis:feature_id\"=>\"2116094\",\"gnis:import_uuid\"=>\"57871b70-0100-4405-bb30-88b2e001a944\",\"gnis:reviewed\"=>\"no\"" }, "geometry": { "type": "Point", "coordinates": [ -89.7978549, 35.9204197 ] } },
{ "type": "Feature", "properties": { "osm_id": "367129176", "name": "Blytheville Fire Department Station 3", "other_tags": "\"addr:state\"=>\"AR\",\"amenity\"=>\"fire_station\",\"gnis:county_name\"=>\"Mississippi\",\"gnis:feature_id\"=>\"2116165\",\"gnis:import_uuid\"=>\"57871b70-0100-4405-bb30-88b2e001a944\",\"gnis:reviewed\"=>\"no\"" }, "geometry": { "type": "Point", "coordinates": [ -89.950515, 35.9605942 ] } },
{ "type": "Feature", "properties": { "osm_id": "367129177", "name": "Blytheville Fire Department Station 1", "other_tags": "\"addr:state\"=>\"AR\",\"amenity\"=>\"fire_station\",\"gnis:county_name\"=>\"Mississippi\",\"gnis:feature_id\"=>\"2116164\",\"gnis:import_uuid\"=>\"57871b70-0100-4405-bb30-88b2e001a944\",\"gnis:reviewed\"=>\"no\"" }, "geometry": { "type": "Point", "coordinates": [ -89.9005902, 35.9272009 ] } },
{ "type": "Feature", "properties": { "osm_id": "367129183", "name": "Birdsong Rural Volunteer Fire Department", "other_tags": "\"addr:state\"=>\"AR\",\"amenity\"=>\"fire_station\",\"gnis:county_name\"=>\"Mississippi\",\"gnis:feature_id\"=>\"2116153\",\"gnis:import_uuid\"=>\"57871b70-0100-4405-bb30-88b2e001a944\",\"gnis:reviewed\"=>\"no\"" }, "geometry": { "type": "Point", "coordinates": [ -90.2623619, 35.458656 ] } },
{ "type": "Feature", "properties": { "osm_id": "367129195", "name": "Burdette Volunteer Fire Department", "other_tags": "\"addr:state\"=>\"AR\",\"amenity\"=>\"fire_station\",\"gnis:county_name\"=>\"Mississippi\",\"gnis:feature_id\"=>\"2116205\",\"gnis:import_uuid\"=>\"57871b70-0100-4405-bb30-88b2e001a944\",\"gnis:reviewed\"=>\"no\"" }, "geometry": { "type": "Point", "coordinates": [ -89.9409949, 35.8173174 ] } },
{ "type": "Feature", "properties": { "osm_id": "367129230", "name": "Caraway Volunteer Fire Department", "other_tags": "\"addr:state\"=>\"AR\",\"amenity\"=>\"fire_station\",\"gnis:county_name\"=>\"Craighead\",\"gnis:feature_id\"=>\"2116235\",\"gnis:import_uuid\"=>\"57871b70-0100-4405-bb30-88b2e001a944\",\"gnis:reviewed\"=>\"no\"" }, "geometry": { "type": "Point", "coordinates": [ -90.319349, 35.7577051 ] } },
{ "type": "Feature", "properties": { "osm_id": "367129329", "name": "Dell Volunteer Fire Department", "other_tags": "\"addr:state\"=>\"AR\",\"amenity\"=>\"fire_station\",\"gnis:county_name\"=>\"Mississippi\",\"gnis:feature_id\"=>\"2116355\",\"gnis:import_uuid\"=>\"57871b70-0100-4405-bb30-88b2e001a944\",\"gnis:reviewed\"=>\"no\"" }, "geometry": { "type": "Point", "coordinates": [ -90.041541, 35.8544308 ] } },
{ "type": "Feature", "properties": { "osm_id": "367129362", "name": "Dyess Volunteer Fire Department", "other_tags": "\"addr:state\"=>\"AR\",\"amenity\"=>\"fire_station\",\"gnis:county_name\"=>\"Mississippi\",\"gnis:feature_id\"=>\"2116376\",\"gnis:import_uuid\"=>\"57871b70-0100-4405-bb30-88b2e001a944\",\"gnis:reviewed\"=>\"no\"" }, "geometry": { "type": "Point", "coordinates": [ -90.2144793, 35.5972018 ] } },
{ "type": "Feature", "properties": { "osm_id": "367129392", "name": "Crawfordsville Volunteer Fire Station", "other_tags": "\"addr:state\"=>\"AR\",\"amenity\"=>\"fire_station\",\"gnis:county_name\"=>\"Crittenden\",\"gnis:feature_id\"=>\"2116324\",\"gnis:import_uuid\"=>\"57871b70-0100-4405-bb30-88b2e001a944\",\"gnis:reviewed\"=>\"no\"" }, "geometry": { "type": "Point", "coordinates": [ -90.326235, 35.2264001 ] } },
{ "type": "Feature", "properties": { "osm_id": "367129539", "name": "Edmondson Volunteer Fire Department", "other_tags": "\"addr:state\"=>\"AR\",\"amenity\"=>\"fire_station\",\"gnis:county_name\"=>\"Crittenden\",\"gnis:feature_id\"=>\"2116391\",\"gnis:import_uuid\"=>\"57871b70-0100-4405-bb30-88b2e001a944\",\"gnis:reviewed\"=>\"no\"" }, "geometry": { "type": "Point", "coordinates": [ -90.3083173, 35.102621 ] } },
{ "type": "Feature", "properties": { "osm_id": "367129596", "name": "Gosnell Volunteer Fire Department", "other_tags": "\"addr:state\"=>\"AR\",\"amenity\"=>\"fire_station\",\"gnis:county_name\"=>\"Mississippi\",\"gnis:feature_id\"=>\"2116490\",\"gnis:import_uuid\"=>\"57871b70-0100-4405-bb30-88b2e001a944\",\"gnis:reviewed\"=>\"no\"" }, "geometry": { "type": "Point", "coordinates": [ -89.9654942, 35.9571016 ] } },
{ "type": "Feature", "properties": { "osm_id": "367129645", "name": "Greenway Fire Station", "other_tags": "\"addr:state\"=>\"AR\",\"amenity\"=>\"fire_station\",\"gnis:county_name\"=>\"Clay\",\"gnis:feature_id\"=>\"2116506\",\"gnis:import_uuid\"=>\"57871b70-0100-4405-bb30-88b2e001a944\",\"gnis:reviewed\"=>\"no\"" }, "geometry": { "type": "Point", "coordinates": [ -90.2201717, 36.3379447 ] } },
{ "type": "Feature", "properties": { "osm_id": "367129680", "name": "Gilmore Volunteer Fire Department", "other_tags": "\"addr:state\"=>\"AR\",\"amenity\"=>\"fire_station\",\"gnis:county_name\"=>\"Crittenden\",\"gnis:feature_id\"=>\"2116478\",\"gnis:import_uuid\"=>\"57871b70-0100-4405-bb30-88b2e001a944\",\"gnis:reviewed\"=>\"no\"" }, "geometry": { "type": "Point", "coordinates": [ -90.2791374, 35.4111014 ] } },
{ "type": "Feature", "properties": { "osm_id": "367129782", "name": "Jericho Fire Department", "other_tags": "\"addr:state\"=>\"AR\",\"amenity\"=>\"fire_station\",\"gnis:county_name\"=>\"Crittenden\",\"gnis:feature_id\"=>\"2116631\",\"gnis:import_uuid\"=>\"57871b70-0100-4405-bb30-88b2e001a944\",\"gnis:reviewed\"=>\"no\"" }, "geometry": { "type": "Point", "coordinates": [ -90.2287752, 35.2882408 ] } },
{ "type": "Feature", "properties": { "osm_id": "367129868", "name": "Lepanto Volunteer Fire Department", "other_tags": "\"addr:state\"=>\"AR\",\"amenity\"=>\"fire_station\",\"gnis:county_name\"=>\"Poinsett\",\"gnis:feature_id\"=>\"2116707\",\"gnis:import_uuid\"=>\"57871b70-0100-4405-bb30-88b2e001a944\",\"gnis:reviewed\"=>\"no\"" }, "geometry": { "type": "Point", "coordinates": [ -90.3304504, 35.6128983 ] } },
{ "type": "Feature", "properties": { "osm_id": "367129872", "name": "Leachville Volunteer Fire Department", "other_tags": "\"addr:state\"=>\"AR\",\"amenity\"=>\"fire_station\",\"gnis:county_name\"=>\"Mississippi\",\"gnis:feature_id\"=>\"2116703\",\"gnis:import_uuid\"=>\"57871b70-0100-4405-bb30-88b2e001a944\",\"gnis:reviewed\"=>\"no\"" }, "geometry": { "type": "Point", "coordinates": [ -90.2570159, 35.93697 ] } },
{ "type": "Feature", "properties": { "osm_id": "367129913", "name": "Keiser Fire Department", "other_tags": "\"addr:state\"=>\"AR\",\"amenity\"=>\"fire_station\",\"gnis:county_name\"=>\"Mississippi\",\"gnis:feature_id\"=>\"2116661\",\"gnis:import_uuid\"=>\"57871b70-0100-4405-bb30-88b2e001a944\",\"gnis:reviewed\"=>\"no\"" }, "geometry": { "type": "Point", "coordinates": [ -90.0969684, 35.6751767 ] } },
{ "type": "Feature", "properties": { "osm_id": "367129922", "name": "Joiner Volunteer Fire Department", "other_tags": "\"addr:state\"=>\"AR\",\"amenity\"=>\"fire_station\",\"gnis:county_name\"=>\"Mississippi\",\"gnis:feature_id\"=>\"2116653\",\"gnis:import_uuid\"=>\"57871b70-0100-4405-bb30-88b2e001a944\",\"gnis:reviewed\"=>\"no\"" }, "geometry": { "type": "Point", "coordinates": [ -90.1481605, 35.5078474 ] } },
{ "type": "Feature", "properties": { "osm_id": "367129939", "name": "Manila Fire Department", "other_tags": "\"addr:state\"=>\"AR\",\"amenity\"=>\"fire_station\",\"gnis:county_name\"=>\"Mississippi\",\"gnis:feature_id\"=>\"2116758\",\"gnis:import_uuid\"=>\"57871b70-0100-4405-bb30-88b2e001a944\",\"gnis:reviewed\"=>\"no\"" }, "geometry": { "type": "Point", "coordinates": [ -90.1673251, 35.8797395 ] } },
{ "type": "Feature", "properties": { "osm_id": "367129944", "name": "Marion Fire Department Station 1", "other_tags": "\"addr:state\"=>\"AR\",\"amenity\"=>\"fire_station\",\"gnis:county_name\"=>\"Crittenden\",\"gnis:feature_id\"=>\"2116763\",\"gnis:import_uuid\"=>\"57871b70-0100-4405-bb30-88b2e001a944\",\"gnis:reviewed\"=>\"no\"" }, "geometry": { "type": "Point", "coordinates": [ -90.2037678, 35.2132934 ] } },
{ "type": "Feature", "properties": { "osm_id": "367129959", "name": "Luxora Volunteer Fire Department", "other_tags": "\"addr:state\"=>\"AR\",\"amenity\"=>\"fire_station\",\"gnis:county_name\"=>\"Mississippi\",\"gnis:feature_id\"=>\"2116747\",\"gnis:import_uuid\"=>\"57871b70-0100-4405-bb30-88b2e001a944\",\"gnis:reviewed\"=>\"no\"" }, "geometry": { "type": "Point", "coordinates": [ -89.9296642, 35.7574497 ] } },
{ "type": "Feature", "properties": { "osm_id": "367130092", "name": "Monette Volunteer Fire Department", "other_tags": "\"addr:state\"=>\"AR\",\"amenity\"=>\"fire_station\",\"gnis:county_name\"=>\"Craighead\",\"gnis:feature_id\"=>\"2116803\",\"gnis:import_uuid\"=>\"57871b70-0100-4405-bb30-88b2e001a944\",\"gnis:reviewed\"=>\"no\"" }, "geometry": { "type": "Point", "coordinates": [ -90.3422961, 35.8914489 ] } },
{ "type": "Feature", "properties": { "osm_id": "367130102", "name": "Milligan Ridge Volunteer Fire Department", "other_tags": "\"addr:state\"=>\"AR\",\"amenity\"=>\"fire_station\",\"gnis:county_name\"=>\"Mississippi\",\"gnis:feature_id\"=>\"2116797\",\"gnis:import_uuid\"=>\"57871b70-0100-4405-bb30-88b2e001a944\",\"gnis:reviewed\"=>\"no\"" }, "geometry": { "type": "Point", "coordinates": [ -90.2308373, 35.8044053 ] } },
{ "type": "Feature", "properties": { "osm_id": "367130160", "name": "Pollard Volunteer Fire Department", "other_tags": "\"addr:state\"=>\"AR\",\"amenity\"=>\"fire_station\",\"gnis:county_name\"=>\"Clay\",\"gnis:feature_id\"=>\"2116993\",\"gnis:import_uuid\"=>\"57871b70-0100-4405-bb30-88b2e001a944\",\"gnis:reviewed\"=>\"no\"" }, "geometry": { "type": "Point", "coordinates": [ -90.267914, 36.4306973 ] } },
{ "type": "Feature", "properties": { "osm_id": "367130182", "name": "Rector Volunteer Fire Department", "other_tags": "\"addr:city\"=>\"Rector\",\"addr:country\"=>\"US\",\"addr:housenumber\"=>\"124\",\"addr:postcode\"=>\"72461\",\"addr:state\"=>\"AR\",\"addr:street\"=>\"West 9th Street\",\"amenity\"=>\"fire_station\",\"gnis:county_name\"=>\"Clay\",\"gnis:feature_id\"=>\"2117019\",\"gnis:import_uuid\"=>\"57871b70-0100-4405-bb30-88b2e001a944\",\"gnis:reviewed\"=>\"no\"" }, "geometry": { "type": "Point", "coordinates": [ -90.2923007, 36.2587059 ] } },
{ "type": "Feature", "properties": { "osm_id": "367130205", "name": "Osceola Fire Department Station 2", "other_tags": "\"addr:state\"=>\"AR\",\"amenity\"=>\"fire_station\",\"gnis:county_name\"=>\"Mississippi\",\"gnis:feature_id\"=>\"2116908\",\"gnis:import_uuid\"=>\"57871b70-0100-4405-bb30-88b2e001a944\",\"gnis:reviewed\"=>\"no\"" }, "geometry": { "type": "Point", "coordinates": [ -89.9821302, 35.6989394 ] } },
{ "type": "Feature", "properties": { "osm_id": "367130206", "name": "Osceola Fire Department Station 1", "other_tags": "\"addr:state\"=>\"AR\",\"amenity\"=>\"fire_station\",\"gnis:county_name\"=>\"Mississippi\",\"gnis:feature_id\"=>\"2116907\",\"gnis:import_uuid\"=>\"57871b70-0100-4405-bb30-88b2e001a944\",\"gnis:reviewed\"=>\"no\"" }, "geometry": { "type": "Point", "coordinates": [ -89.9675501, 35.7046156 ] } },
{ "type": "Feature", "properties": { "osm_id": "367130253", "name": "Piggott Volunteer Fire Department Station 2", "other_tags": "\"addr:state\"=>\"AR\",\"amenity\"=>\"fire_station\",\"gnis:county_name\"=>\"Clay\",\"gnis:feature_id\"=>\"2116958\",\"gnis:import_uuid\"=>\"57871b70-0100-4405-bb30-88b2e001a944\",\"gnis:reviewed\"=>\"no\"" }, "geometry": { "type": "Point", "coordinates": [ -90.1893873, 36.3822564 ] } },
{ "type": "Feature", "properties": { "osm_id": "367130256", "name": "Piggott Volunteer Fire Department Station 1", "other_tags": "\"addr:state\"=>\"AR\",\"amenity\"=>\"fire_station\",\"gnis:county_name\"=>\"Clay\",\"gnis:feature_id\"=>\"2116957\",\"gnis:import_uuid\"=>\"57871b70-0100-4405-bb30-88b2e001a944\",\"gnis:reviewed\"=>\"no\"" }, "geometry": { "type": "Point", "coordinates": [ -90.1919552, 36.3853047 ] } },
{ "type": "Feature", "properties": { "osm_id": "367130379", "name": "Saint Francis Volunteer Fire Department", "other_tags": "\"addr:state\"=>\"AR\",\"amenity\"=>\"fire_station\",\"gnis:county_name\"=>\"Clay\",\"gnis:feature_id\"=>\"2117082\",\"gnis:import_uuid\"=>\"57871b70-0100-4405-bb30-88b2e001a944\",\"gnis:reviewed\"=>\"no\"" }, "geometry": { "type": "Point", "coordinates": [ -90.1390341, 36.4557849 ] } },
{ "type": "Feature", "properties": { "osm_id": "367130448", "name": "West Memphis Fire Department Station 1", "other_tags": "\"addr:state\"=>\"AR\",\"amenity\"=>\"fire_station\",\"gnis:county_name\"=>\"Crittenden\",\"gnis:feature_id\"=>\"2117297\",\"gnis:import_uuid\"=>\"57871b70-0100-4405-bb30-88b2e001a944\",\"gnis:reviewed\"=>\"no\"" }, "geometry": { "type": "Point", "coordinates": [ -90.1761974, 35.1477859 ] } },
{ "type": "Feature", "properties": { "osm_id": "367130449", "name": "West Memphis Fire Department Station 2", "other_tags": "\"addr:state\"=>\"AR\",\"amenity\"=>\"fire_station\",\"gnis:county_name\"=>\"Crittenden\",\"gnis:feature_id\"=>\"2117298\",\"gnis:import_uuid\"=>\"57871b70-0100-4405-bb30-88b2e001a944\",\"gnis:reviewed\"=>\"no\"" }, "geometry": { "type": "Point", "coordinates": [ -90.2014803, 35.153812 ] } },
{ "type": "Feature", "properties": { "osm_id": "367130450", "name": "West Memphis Fire Department Station 3", "other_tags": "\"addr:state\"=>\"AR\",\"amenity\"=>\"fire_station\",\"gnis:county_name\"=>\"Crittenden\",\"gnis:feature_id\"=>\"2117299\",\"gnis:import_uuid\"=>\"57871b70-0100-4405-bb30-88b2e001a944\",\"gnis:reviewed\"=>\"no\"" }, "geometry": { "type": "Point", "coordinates": [ -90.1546761, 35.1538264 ] } },
{ "type": "Feature", "properties": { "osm_id": "367130476", "name": "Sunset Fire Department", "other_tags": "\"addr:state\"=>\"AR\",\"amenity\"=>\"fire_station\",\"gnis:county_name\"=>\"Crittenden\",\"gnis:feature_id\"=>\"2117194\",\"gnis:import_uuid\"=>\"57871b70-0100-4405-bb30-88b2e001a944\",\"gnis:reviewed\"=>\"no\"" }, "geometry": { "type": "Point", "coordinates": [ -90.2048711, 35.2223317 ] } },
{ "type": "Feature", "properties": { "osm_id": "367130515", "name": "Turrell Volunteer Fire Department", "other_tags": "\"addr:state\"=>\"AR\",\"amenity\"=>\"fire_station\",\"gnis:county_name\"=>\"Crittenden\",\"gnis:feature_id\"=>\"2117231\",\"gnis:import_uuid\"=>\"57871b70-0100-4405-bb30-88b2e001a944\",\"gnis:reviewed\"=>\"no\"" }, "geometry": { "type": "Point", "coordinates": [ -90.2596906, 35.37246 ] } },
{ "type": "Feature", "properties": { "osm_id": "367130738", "name": "Fire Station Number 1", "other_tags": "\"addr:state\"=>\"AR\",\"amenity\"=>\"fire_station\",\"gnis:county_name\"=>\"Mississippi\",\"gnis:feature_id\"=>\"62955\",\"gnis:import_uuid\"=>\"57871b70-0100-4405-bb30-88b2e001a944\",\"gnis:reviewed\"=>\"no\"" }, "geometry": { "type": "Point", "coordinates": [ -89.9148086, 35.9267399 ] } },
{ "type": "Feature", "properties": { "osm_id": "367130741", "name": "Blytheville Fire Department Station 2", "other_tags": "\"addr:state\"=>\"AR\",\"amenity\"=>\"fire_station\",\"gnis:county_name\"=>\"Mississippi\",\"gnis:feature_id\"=>\"62956\",\"gnis:import_uuid\"=>\"57871b70-0100-4405-bb30-88b2e001a944\",\"gnis:reviewed\"=>\"no\"" }, "geometry": { "type": "Point", "coordinates": [ -89.9257668, 35.9276956 ] } },
{ "type": "Feature", "properties": { "osm_id": "367130790", "name": "West Memphis Fire Department Station 4", "other_tags": "\"addr:state\"=>\"AR\",\"amenity\"=>\"fire_station\",\"gnis:county_name\"=>\"Crittenden\",\"gnis:feature_id\"=>\"2117300\",\"gnis:import_uuid\"=>\"57871b70-0100-4405-bb30-88b2e001a944\",\"gnis:reviewed\"=>\"no\"" }, "geometry": { "type": "Point", "coordinates": [ -90.1621448, 35.1388795 ] } },
{ "type": "Feature", "properties": { "osm_id": "367130799", "name": "Wilson Volunteer Fire Department", "other_tags": "\"addr:state\"=>\"AR\",\"amenity\"=>\"fire_station\",\"gnis:county_name\"=>\"Mississippi\",\"gnis:feature_id\"=>\"2117324\",\"gnis:import_uuid\"=>\"57871b70-0100-4405-bb30-88b2e001a944\",\"gnis:reviewed\"=>\"no\"" }, "geometry": { "type": "Point", "coordinates": [ -90.046812, 35.5661704 ] } },
{ "type": "Feature", "properties": { "osm_id": "368157261", "name": "Fire Station Number 20", "other_tags": "\"addr:state\"=>\"TN\",\"amenity\"=>\"fire_station\",\"gnis:county_name\"=>\"Knox\",\"gnis:feature_id\"=>\"1321506\",\"gnis:import_uuid\"=>\"57871b70-0100-4405-bb30-88b2e001a944\",\"gnis:reviewed\"=>\"no\"" }, "geometry": { "type": "Point", "coordinates": [ -83.9374098, 36.0842478 ] } },
{ "type": "Feature", "properties": { "osm_id": "368157262", "name": "Fire Station Number 17", "other_tags": "\"addr:state\"=>\"TN\",\"amenity\"=>\"fire_station\",\"gnis:county_name\"=>\"Knox\",\"gnis:feature_id\"=>\"1321505\",\"gnis:import_uuid\"=>\"57871b70-0100-4405-bb30-88b2e001a944\",\"gnis:reviewed\"=>\"no\"" }, "geometry": { "type": "Point", "coordinates": [ -83.9807405, 35.9048042 ] } },
{ "type": "Feature", "properties": { "osm_id": "368157263", "name": "Fire Station Number 16", "other_tags": "\"addr:state\"=>\"TN\",\"amenity\"=>\"fire_station\",\"gnis:county_name\"=>\"Knox\",\"gnis:feature_id\"=>\"1321504\",\"gnis:import_uuid\"=>\"57871b70-0100-4405-bb30-88b2e001a944\",\"gnis:reviewed\"=>\"no\"" }, "geometry": { "type": "Point", "coordinates": [ -84.0012969, 35.9023038 ] } },
{ "type": "Feature", "properties": { "osm_id": "368157265", "name": "Fire Station Number 14", "other_tags": "\"addr:state\"=>\"TN\",\"amenity\"=>\"fire_station\",\"gnis:county_name\"=>\"Knox\",\"gnis:feature_id\"=>\"1321502\",\"gnis:import_uuid\"=>\"57871b70-0100-4405-bb30-88b2e001a944\",\"gnis:reviewed\"=>\"no\"" }, "geometry": { "type": "Point", "coordinates": [ -84.2126954, 35.8648007 ] } },
{ "type": "Feature", "properties": { "osm_id": "368157266", "name": "Fire Station Number 10", "other_tags": "\"addr:state\"=>\"TN\",\"amenity\"=>\"fire_station\",\"gnis:county_name\"=>\"Knox\",\"gnis:feature_id\"=>\"1321501\",\"gnis:import_uuid\"=>\"57871b70-0100-4405-bb30-88b2e001a944\",\"gnis:reviewed\"=>\"no\"" }, "geometry": { "type": "Point", "coordinates": [ -84.1301919, 35.8975798 ] } },
{ "type": "Feature", "properties": { "osm_id": "368157267", "name": "Fire Station Number 4", "other_tags": "\"addr:state\"=>\"TN\",\"amenity\"=>\"fire_station\",\"gnis:county_name\"=>\"Knox\",\"gnis:feature_id\"=>\"1321500\",\"gnis:import_uuid\"=>\"57871b70-0100-4405-bb30-88b2e001a944\",\"gnis:reviewed\"=>\"no\"" }, "geometry": { "type": "Point", "coordinates": [ -84.0938025, 35.9639691 ] } },
{ "type": "Feature", "properties": { "osm_id": "368157271", "name": "Gallatin Fire Station Number Two", "other_tags": "\"addr:state\"=>\"TN\",\"amenity\"=>\"fire_station\",\"gnis:county_name\"=>\"Sumner\",\"gnis:feature_id\"=>\"1320628\",\"gnis:import_uuid\"=>\"57871b70-0100-4405-bb30-88b2e001a944\",\"gnis:reviewed\"=>\"no\"" }, "geometry": { "type": "Point", "coordinates": [ -86.4955496, 36.3625485 ] } },
{ "type": "Feature", "properties": { "osm_id": "368157272", "name": "Gallatin Fire Station Number One", "other_tags": "\"addr:state\"=>\"TN\",\"amenity\"=>\"fire_station\",\"gnis:county_name\"=>\"Sumner\",\"gnis:feature_id\"=>\"1320627\",\"gnis:import_uuid\"=>\"57871b70-0100-4405-bb30-88b2e001a944\",\"gnis:reviewed\"=>\"no\"" }, "geometry": { "type": "Point", "coordinates": [ -86.4484154, 36.3885693 ] } },
{ "type": "Feature", "properties": { "osm_id": "368157279", "name": "East Sullivan County Volunteer Fire Department", "other_tags": "\"addr:state\"=>\"TN\",\"amenity\"=>\"fire_station\",\"gnis:county_name\"=>\"Sullivan\",\"gnis:feature_id\"=>\"1640502\",\"gnis:import_uuid\"=>\"57871b70-0100-4405-bb30-88b2e001a944\",\"gnis:reviewed\"=>\"no\"" }, "geometry": { "type": "Point", "coordinates": [ -82.1809652, 36.5289951 ] } },
{ "type": "Feature", "properties": { "osm_id": "368157280", "name": "Fire Station Number 2", "other_tags": "\"addr:state\"=>\"TN\",\"amenity\"=>\"fire_station\",\"gnis:county_name\"=>\"Sullivan\",\"gnis:feature_id\"=>\"1640508\",\"gnis:import_uuid\"=>\"57871b70-0100-4405-bb30-88b2e001a944\",\"gnis:reviewed\"=>\"no\"" }, "geometry": { "type": "Point", "coordinates": [ -82.1892996, 36.5717726 ] } },
{ "type": "Feature", "properties": { "osm_id": "368157281", "name": "Watauga Avenue Fire Station", "other_tags": "\"addr:state\"=>\"TN\",\"amenity\"=>\"fire_station\",\"gnis:county_name\"=>\"Washington\",\"gnis:feature_id\"=>\"1640454\",\"gnis:import_uuid\"=>\"57871b70-0100-4405-bb30-88b2e001a944\",\"gnis:reviewed\"=>\"no\"" }, "geometry": { "type": "Point", "coordinates": [ -82.3456946, 36.3320505 ] } },
{ "type": "Feature", "properties": { "osm_id": "368157282", "name": "Avoca Volunteer Fire Department", "other_tags": "\"addr:state\"=>\"TN\",\"amenity\"=>\"fire_station\",\"gnis:county_name\"=>\"Sullivan\",\"gnis:feature_id\"=>\"1640472\",\"gnis:import_uuid\"=>\"57871b70-0100-4405-bb30-88b2e001a944\",\"gnis:reviewed\"=>\"no\"" }, "geometry": { "type": "Point", "coordinates": [ -82.2354124, 36.5381596 ] } },
{ "type": "Feature", "properties": { "osm_id": "368157283", "name": "Indian Ridge Fire Station", "other_tags": "\"addr:state\"=>\"TN\",\"amenity\"=>\"fire_station\",\"gnis:county_name\"=>\"Washington\",\"gnis:feature_id\"=>\"1640352\",\"gnis:import_uuid\"=>\"57871b70-0100-4405-bb30-88b2e001a944\",\"gnis:reviewed\"=>\"no\"" }, "geometry": { "type": "Point", "coordinates": [ -82.3990309, 36.3673272 ] } },
{ "type": "Feature", "properties": { "osm_id": "368157284", "name": "L L Gelder Fire Station", "other_tags": "\"addr:state\"=>\"TN\",\"amenity\"=>\"fire_station\",\"gnis:county_name\"=>\"Washington\",\"gnis:feature_id\"=>\"1640371\",\"gnis:import_uuid\"=>\"57871b70-0100-4405-bb30-88b2e001a944\",\"gnis:reviewed\"=>\"no\"" }, "geometry": { "type": "Point", "coordinates": [ -82.3723862, 36.3445121 ] } },
{ "type": "Feature", "properties": { "osm_id": "368157285", "name": "Clarence H Eades Fire Station", "other_tags": "\"addr:state\"=>\"TN\",\"amenity\"=>\"fire_station\",\"gnis:county_name\"=>\"Washington\",\"gnis:feature_id\"=>\"1640310\",\"gnis:import_uuid\"=>\"57871b70-0100-4405-bb30-88b2e001a944\",\"gnis:reviewed\"=>\"no\"" }, "geometry": { "type": "Point", "coordinates": [ -82.3523615, 36.3001066 ] } },
{ "type": "Feature", "properties": { "osm_id": "368157287", "name": "Fosterville Fire Hall", "other_tags": "\"addr:state\"=>\"TN\",\"amenity\"=>\"fire_station\",\"gnis:county_name\"=>\"Rutherford\",\"gnis:feature_id\"=>\"1323492\",\"gnis:import_uuid\"=>\"57871b70-0100-4405-bb30-88b2e001a944\",\"gnis:reviewed\"=>\"no\"" }, "geometry": { "type": "Point", "coordinates": [ -86.4033262, 35.6545139 ] } },
{ "type": "Feature", "properties": { "osm_id": "368157288", "name": "Central Fire Station", "other_tags": "\"addr:state\"=>\"TN\",\"amenity\"=>\"fire_station\",\"gnis:county_name\"=>\"Washington\",\"gnis:feature_id\"=>\"1640302\",\"gnis:import_uuid\"=>\"57871b70-0100-4405-bb30-88b2e001a944\",\"gnis:reviewed\"=>\"no\"" }, "geometry": { "type": "Point", "coordinates": [ -82.3439475, 36.3203233 ] } },
{ "type": "Feature", "properties": { "osm_id": "368157291", "name": "Fire Station Number 21", "other_tags": "\"addr:state\"=>\"TN\",\"amenity\"=>\"fire_station\",\"gnis:county_name\"=>\"Knox\",\"gnis:feature_id\"=>\"1321507\",\"gnis:import_uuid\"=>\"57871b70-0100-4405-bb30-88b2e001a944\",\"gnis:reviewed\"=>\"no\"" }, "geometry": { "type": "Point", "coordinates": [ -84.0293566, 36.0317472 ] } },
{ "type": "Feature", "properties": { "osm_id": "368157292", "name": "Fire Station Number 25", "other_tags": "\"addr:state\"=>\"TN\",\"amenity\"=>\"fire_station\",\"gnis:county_name\"=>\"Knox\",\"gnis:feature_id\"=>\"1321508\",\"gnis:import_uuid\"=>\"57871b70-0100-4405-bb30-88b2e001a944\",\"gnis:reviewed\"=>\"no\"" }, "geometry": { "type": "Point", "coordinates": [ -83.8287944, 36.0778609 ] } },
{ "type": "Feature", "properties": { "osm_id": "368157311", "name": "Collierville Fire and Rescue Station #2", "other_tags": "\"addr:city\"=>\"Collierville\",\"addr:housenumber\"=>\"391\",\"addr:postcode\"=>\"38017\",\"addr:state\"=>\"TN\",\"addr:street\"=>\"Old Byhalia Road\",\"amenity\"=>\"fire_station\",\"gnis:county_name\"=>\"Shelby\",\"gnis:feature_id\"=>\"2425281\",\"gnis:import_uuid\"=>\"57871b70-0100-4405-bb30-88b2e001a944\",\"gnis:reviewed\"=>\"no\",\"operator\"=>\"Town of Collierville\"" }, "geometry": { "type": "Point", "coordinates": [ -89.6866855, 35.0504429 ] } },
{ "type": "Feature", "properties": { "osm_id": "368157312", "name": "Fire Station Number 2", "other_tags": "\"addr:state\"=>\"TN\",\"amenity\"=>\"fire_station\",\"gnis:county_name\"=>\"Madison\",\"gnis:feature_id\"=>\"1960158\",\"gnis:import_uuid\"=>\"57871b70-0100-4405-bb30-88b2e001a944\",\"gnis:reviewed\"=>\"no\"" }, "geometry": { "type": "Point", "coordinates": [ -88.8220026, 35.6272944 ] } },
{ "type": "Feature", "properties": { "osm_id": "368157313", "name": "Fire Station Number 3", "other_tags": "\"addr:state\"=>\"TN\",\"amenity\"=>\"fire_station\",\"gnis:county_name\"=>\"Madison\",\"gnis:feature_id\"=>\"1960159\",\"gnis:import_uuid\"=>\"57871b70-0100-4405-bb30-88b2e001a944\",\"gnis:reviewed\"=>\"no\"" }, "geometry": { "type": "Point", "coordinates": [ -88.8075578, 35.6197945 ] } },
{ "type": "Feature", "properties": { "osm_id": "368157314", "name": "Hickory Withe Fire Department", "other_tags": "\"addr:state\"=>\"TN\",\"amenity\"=>\"fire_station\",\"gnis:county_name\"=>\"Fayette\",\"gnis:feature_id\"=>\"2425309\",\"gnis:import_uuid\"=>\"57871b70-0100-4405-bb30-88b2e001a944\",\"gnis:reviewed\"=>\"no\"" }, "geometry": { "type": "Point", "coordinates": [ -89.611348, 35.287547 ] } },
{ "type": "Feature", "properties": { "osm_id": "368157315", "name": "Memphis Fire Department Headquarters", "other_tags": "\"addr:state\"=>\"TN\",\"amenity\"=>\"fire_station\",\"gnis:county_name\"=>\"Shelby\",\"gnis:feature_id\"=>\"2425325\",\"gnis:import_uuid\"=>\"57871b70-0100-4405-bb30-88b2e001a944\",\"gnis:reviewed\"=>\"no\",\"office\"=>\"government\"" }, "geometry": { "type": "Point", "coordinates": [ -89.9728647, 35.1312458 ] } },
{ "type": "Feature", "properties": { "osm_id": "368157316", "name": "Fire Station 38", "other_tags": "\"addr:state\"=>\"TN\",\"amenity\"=>\"fire_station\",\"gnis:county_name\"=>\"Shelby\",\"gnis:feature_id\"=>\"2425294\",\"gnis:import_uuid\"=>\"57871b70-0100-4405-bb30-88b2e001a944\",\"gnis:reviewed\"=>\"no\"" }, "geometry": { "type": "Point", "coordinates": [ -90.068598, 35.019771 ] } },
{ "type": "Feature", "properties": { "osm_id": "368157319", "name": "Brentwood Fire Department", "other_tags": "\"addr:state\"=>\"TN\",\"amenity\"=>\"fire_station\",\"gnis:county_name\"=>\"Williamson\",\"gnis:feature_id\"=>\"2453828\",\"gnis:import_uuid\"=>\"57871b70-0100-4405-bb30-88b2e001a944\",\"gnis:reviewed\"=>\"no\"" }, "geometry": { "type": "Point", "coordinates": [ -86.8054648, 36.0344766 ] } },
{ "type": "Feature", "properties": { "osm_id": "368157320", "name": "Memphis Fire Department", "other_tags": "\"addr:state\"=>\"TN\",\"amenity\"=>\"fire_station\",\"gnis:county_name\"=>\"Shelby\",\"gnis:feature_id\"=>\"2425326\",\"gnis:import_uuid\"=>\"57871b70-0100-4405-bb30-88b2e001a944\",\"gnis:reviewed\"=>\"no\"" }, "geometry": { "type": "Point", "coordinates": [ -90.026921, 35.142326 ] } },
{ "type": "Feature", "properties": { "osm_id": "368157321", "name": "Millington Fire Department", "other_tags": "\"addr:state\"=>\"TN\",\"amenity\"=>\"fire_station\",\"gnis:county_name\"=>\"Shelby\",\"gnis:feature_id\"=>\"2425332\",\"gnis:import_uuid\"=>\"57871b70-0100-4405-bb30-88b2e001a944\",\"gnis:reviewed\"=>\"no\"" }, "geometry": { "type": "Point", "coordinates": [ -89.902171, 35.341836 ] } },
{ "type": "Feature", "properties": { "osm_id": "368157322", "name": "La Vergne Fire Station", "other_tags": "\"addr:state\"=>\"TN\",\"amenity\"=>\"fire_station\",\"gnis:county_name\"=>\"Rutherford\",\"gnis:feature_id\"=>\"2453887\",\"gnis:import_uuid\"=>\"57871b70-0100-4405-bb30-88b2e001a944\",\"gnis:reviewed\"=>\"no\"" }, "geometry": { "type": "Point", "coordinates": [ -86.5735191, 36.0179589 ] } },
{ "type": "Feature", "properties": { "osm_id": "368157324", "name": "Davidson County Fire Department", "other_tags": "\"addr:state\"=>\"TN\",\"amenity\"=>\"fire_station\",\"gnis:county_name\"=>\"Davidson\",\"gnis:feature_id\"=>\"2453850\",\"gnis:import_uuid\"=>\"57871b70-0100-4405-bb30-88b2e001a944\",\"gnis:reviewed\"=>\"no\"" }, "geometry": { "type": "Point", "coordinates": [ -86.764444, 36.1700803 ] } },
{ "type": "Feature", "properties": { "osm_id": "368157339", "name": "Dayton Fire Department", "other_tags": "\"addr:state\"=>\"TN\",\"amenity\"=>\"fire_station\",\"gnis:county_name\"=>\"Rhea\",\"gnis:feature_id\"=>\"1320204\",\"gnis:reviewed\"=>\"no\"" }, "geometry": { "type": "Point", "coordinates": [ -85.0157221, 35.4913052 ] } },
{ "type": "Feature", "properties": { "osm_id": "486719841", "name": "Shelby County Fire Station #2", "other_tags": "\"amenity\"=>\"fire_station\"" }, "geometry": { "type": "Point", "coordinates": [ -89.760092, 35.0218315 ] } },
{ "type": "Feature", "properties": { "osm_id": "495868856", "other_tags": "\"amenity\"=>\"fire_station\"" }, "geometry": { "type": "Point", "coordinates": [ -87.0375539, 36.3953742 ] } },
{ "type": "Feature", "properties": { "osm_id": "540994999", "other_tags": "\"amenity\"=>\"fire_station\"" }, "geometry": { "type": "Point", "coordinates": [ -86.3250147, 36.2264411 ] } },
{ "type": "Feature", "properties": { "osm_id": "541004661", "name": "Lebanon FIre Department", "other_tags": "\"amenity\"=>\"fire_station\"" }, "geometry": { "type": "Point", "coordinates": [ -86.2883849, 36.2069116 ] } },
{ "type": "Feature", "properties": { "osm_id": "541009328", "name": "Watertown Fire Department", "other_tags": "\"amenity\"=>\"fire_station\"" }, "geometry": { "type": "Point", "coordinates": [ -86.1317525, 36.1004006 ] } },
{ "type": "Feature", "properties": { "osm_id": "599669186", "name": "Germantown Fire Station", "other_tags": "\"amenity\"=>\"fire_station\"" }, "geometry": { "type": "Point", "coordinates": [ -89.8048076, 35.0960884 ] } },
{ "type": "Feature", "properties": { "osm_id": "617653423", "other_tags": "\"amenity\"=>\"fire_station\"" }, "geometry": { "type": "Point", "coordinates": [ -88.7102789, 35.9158228 ] } },
{ "type": "Feature", "properties": { "osm_id": "657355746", "name": "NFD Station 7", "other_tags": "\"amenity\"=>\"fire_station\"" }, "geometry": { "type": "Point", "coordinates": [ -86.8869728, 36.1178657 ] } },
{ "type": "Feature", "properties": { "osm_id": "660520458", "other_tags": "\"amenity\"=>\"fire_station\"" }, "geometry": { "type": "Point", "coordinates": [ -86.7169058, 36.0684168 ] } },
{ "type": "Feature", "properties": { "osm_id": "753085759", "other_tags": "\"amenity\"=>\"fire_station\"" }, "geometry": { "type": "Point", "coordinates": [ -86.6871509, 36.0899584 ] } },
{ "type": "Feature", "properties": { "osm_id": "938561882", "name": "Loan Oak Fire Department", "other_tags": "\"amenity\"=>\"fire_station\"" }, "geometry": { "type": "Point", "coordinates": [ -85.3664839, 35.2035721 ] } },
{ "type": "Feature", "properties": { "osm_id": "963964977", "name": "Sparta Fire Station No. 1", "other_tags": "\"amenity\"=>\"fire_station\"" }, "geometry": { "type": "Point", "coordinates": [ -85.4839461, 35.9632043 ] } },
{ "type": "Feature", "properties": { "osm_id": "1043510679", "name": "Sparta Fire Station No. 2", "other_tags": "\"amenity\"=>\"fire_station\"" }, "geometry": { "type": "Point", "coordinates": [ -85.4582481, 35.9242526 ] } },
{ "type": "Feature", "properties": { "osm_id": "1133349593", "name": "Franklin Fire Station", "other_tags": "\"amenity\"=>\"fire_station\"" }, "geometry": { "type": "Point", "coordinates": [ -86.8265613, 35.9557744 ] } },
{ "type": "Feature", "properties": { "osm_id": "1161368828", "name": "Shingle Hollow Fire Department", "other_tags": "\"addr:housenumber\"=>\"2621\",\"addr:postcode\"=>\"28139\",\"addr:street\"=>\"Cove Road\",\"amenity\"=>\"fire_station\"" }, "geometry": { "type": "Point", "coordinates": [ -82.0717606, 35.4739185 ] } },
{ "type": "Feature", "properties": { "osm_id": "1161368843", "name": "Greenhill Fire Department", "other_tags": "\"amenity\"=>\"fire_station\"" }, "geometry": { "type": "Point", "coordinates": [ -82.0443485, 35.4098745 ] } },
{ "type": "Feature", "properties": { "osm_id": "1286748131", "name": "CFD Station 1", "other_tags": "\"amenity\"=>\"fire_station\"" }, "geometry": { "type": "Point", "coordinates": [ -85.3047104, 35.0347773 ] } },
{ "type": "Feature", "properties": { "osm_id": "1286748139", "name": "CFD Station 4", "other_tags": "\"amenity\"=>\"fire_station\"" }, "geometry": { "type": "Point", "coordinates": [ -85.2567579, 35.0609738 ] } },
{ "type": "Feature", "properties": { "osm_id": "1371710592", "other_tags": "\"amenity\"=>\"fire_station\"" }, "geometry": { "type": "Point", "coordinates": [ -85.1330975, 35.0848214 ] } },
{ "type": "Feature", "properties": { "osm_id": "1687276247", "name": "La Vergne Fire Station", "other_tags": "\"amenity\"=>\"fire_station\"" }, "geometry": { "type": "Point", "coordinates": [ -86.5412324, 36.0282987 ] } },
{ "type": "Feature", "properties": { "osm_id": "1740902917", "other_tags": "\"amenity\"=>\"fire_station\"" }, "geometry": { "type": "Point", "coordinates": [ -83.7397294, 35.0881129 ] } },
{ "type": "Feature", "properties": { "osm_id": "1744663742", "name": "Nashville Fire Department Station 37", "other_tags": "\"addr:city\"=>\"Nashville\",\"addr:housenumber\"=>\"646\",\"addr:postcode\"=>\"37221\",\"addr:street\"=>\"Colice Jeanne Road\",\"amenity\"=>\"fire_station\",\"operator\"=>\"Nashville Fire Department\"" }, "geometry": { "type": "Point", "coordinates": [ -86.9342254, 36.0723502 ] } },
{ "type": "Feature", "properties": { "osm_id": "1867982693", "name": "Spring Hill Voluntary Fire Department", "other_tags": "\"amenity\"=>\"fire_station\"" }, "geometry": { "type": "Point", "coordinates": [ -86.8989692, 35.7049094 ] } },
{ "type": "Feature", "properties": { "osm_id": "1988361263", "name": "Celina Fire Department", "other_tags": "\"amenity\"=>\"fire_station\"" }, "geometry": { "type": "Point", "coordinates": [ -85.5067937, 36.5515867 ] } },
{ "type": "Feature", "properties": { "osm_id": "1988814417", "name": "Moss Volunteer Fire Department", "other_tags": "\"amenity\"=>\"fire_station\"" }, "geometry": { "type": "Point", "coordinates": [ -85.6145813, 36.5896224 ] } },
{ "type": "Feature", "properties": { "osm_id": "2103886168", "name": "Nebo Fire Department", "other_tags": "\"addr:city\"=>\"Nebo\",\"addr:housenumber\"=>\"199\",\"addr:postcode\"=>\"28761\",\"addr:state\"=>\"NC\",\"addr:street\"=>\"NC-126\",\"amenity\"=>\"fire_station\",\"phone\"=>\"+18286596497\"" }, "geometry": { "type": "Point", "coordinates": [ -81.9310642, 35.7138033 ] } },
{ "type": "Feature", "properties": { "osm_id": "2155999567", "name": "Fire Station # 9", "other_tags": "\"amenity\"=>\"fire_station\"" }, "geometry": { "type": "Point", "coordinates": [ -89.968318, 35.0393094 ] } },
{ "type": "Feature", "properties": { "osm_id": "2525564117", "name": "Safety Center East", "other_tags": "\"addr:city\"=>\"Brentwood\",\"addr:housenumber\"=>\"1300\",\"addr:state\"=>\"TN\",\"addr:street\"=>\"Sunset Road\",\"amenity\"=>\"fire_station\",\"operator\"=>\"City of Brentwood\"" }, "geometry": { "type": "Point", "coordinates": [ -86.7236685, 35.9787025 ] } },
{ "type": "Feature", "properties": { "osm_id": "2878663226", "name": "Brevard Fire Department", "other_tags": "\"amenity\"=>\"fire_station\"" }, "geometry": { "type": "Point", "coordinates": [ -82.7365686, 35.234618 ] } },
{ "type": "Feature", "properties": { "osm_id": "2932177561", "other_tags": "\"amenity\"=>\"fire_station\"" }, "geometry": { "type": "Point", "coordinates": [ -90.0008232, 35.1354744 ] } },
{ "type": "Feature", "properties": { "osm_id": "3020987712", "other_tags": "\"amenity\"=>\"fire_station\"" }, "geometry": { "type": "Point", "coordinates": [ -86.9093832, 35.7747001 ] } },
{ "type": "Feature", "properties": { "osm_id": "3061154700", "name": "Athens Fire Department", "other_tags": "\"amenity\"=>\"fire_station\"" }, "geometry": { "type": "Point", "coordinates": [ -84.6169217, 35.4579623 ] } },
{ "type": "Feature", "properties": { "osm_id": "3486862481", "name": "Tazewell/New Tazewell Fire Department", "other_tags": "\"amenity\"=>\"fire_station\"" }, "geometry": { "type": "Point", "coordinates": [ -83.5783673, 36.447934 ] } },
{ "type": "Feature", "properties": { "osm_id": "3488038586", "name": "Station 10", "other_tags": "\"addr:city\"=>\"Asheville\",\"addr:housenumber\"=>\"1903\",\"addr:postcode\"=>\"28806\",\"addr:state\"=>\"NC\",\"addr:street\"=>\"Old Haywood Road\",\"amenity\"=>\"fire_station\"" }, "geometry": { "type": "Point", "coordinates": [ -82.6338265, 35.5647816 ] } },
{ "type": "Feature", "properties": { "osm_id": "3500851849", "name": "North Tazewell Volunteer Fire Dept.", "other_tags": "\"amenity\"=>\"fire_station\"" }, "geometry": { "type": "Point", "coordinates": [ -83.5915394, 36.4935688 ] } },
{ "type": "Feature", "properties": { "osm_id": "3611381302", "name": "Cashiers/Glenville Volunteer Fire Department", "other_tags": "\"amenity\"=>\"fire_station\"" }, "geometry": { "type": "Point", "coordinates": [ -83.1068263, 35.1123192 ] } },
{ "type": "Feature", "properties": { "osm_id": "3663281988", "name": "Spring Hill Fire Department Station 1", "other_tags": "\"amenity\"=>\"fire_station\"" }, "geometry": { "type": "Point", "coordinates": [ -86.9417893, 35.7532877 ] } },
{ "type": "Feature", "properties": { "osm_id": "3806724906", "name": "North Tazewell Volunteer Fire Department", "other_tags": "\"addr:city\"=>\"Tazewell\",\"addr:housenumber\"=>\"3415\",\"addr:postcode\"=>\"37879\",\"addr:state\"=>\"TN\",\"addr:street\"=>\"Cedar Fork Road\",\"amenity\"=>\"fire_station\"" }, "geometry": { "type": "Point", "coordinates": [ -83.4793943, 36.5177757 ] } },
{ "type": "Feature", "properties": { "osm_id": "3806799490", "name": "South Claiborne Volunteer Fire Department", "other_tags": "\"addr:city\"=>\"New Tazewell\",\"addr:housenumber\"=>\"3711\",\"addr:postcode\"=>\"37825\",\"addr:street\"=>\"Highway 33 South\",\"amenity\"=>\"fire_station\"" }, "geometry": { "type": "Point", "coordinates": [ -83.690754, 36.396249 ] } },
{ "type": "Feature", "properties": { "osm_id": "3981508108", "name": "Pulaski Fire Department, Fire Station One", "other_tags": "\"addr:city\"=>\"Pulaski\",\"addr:housenumber\"=>\"117\",\"addr:postcode\"=>\"38478\",\"addr:state\"=>\"TN\",\"addr:street\"=>\"East Madison Street\",\"amenity\"=>\"fire_station\",\"operator\"=>\"City of Pulaski\"" }, "geometry": { "type": "Point", "coordinates": [ -87.0302614, 35.1985846 ] } },
{ "type": "Feature", "properties": { "osm_id": "4008007239", "name": "Jonas Ridge Volunteer Fire", "other_tags": "\"amenity\"=>\"fire_station\",\"designation\"=>\"Volunteer Fire Dept\"" }, "geometry": { "type": "Point", "coordinates": [ -81.8958819, 35.9745439 ] } },
{ "type": "Feature", "properties": { "osm_id": "4045886234", "name": "Athens Fire Department", "other_tags": "\"addr:city\"=>\"Athens\",\"addr:housenumber\"=>\"815\",\"addr:postcode\"=>\"37303\",\"addr:state\"=>\"TN\",\"addr:street\"=>\"N. Jackson Street\",\"amenity\"=>\"fire_station\",\"description\"=>\"Station 1\"" }, "geometry": { "type": "Point", "coordinates": [ -84.5974645, 35.4513802 ] } },
{ "type": "Feature", "properties": { "osm_id": "4064105788", "name": "Gaffney Fire Department", "other_tags": "\"addr:city\"=>\"Gaffney\",\"addr:housenumber\"=>\"205\",\"addr:postcode\"=>\"29340\",\"addr:state\"=>\"SC\",\"addr:street\"=>\"North Limestone Street\",\"amenity\"=>\"fire_station\",\"operator\"=>\"City of Gaffney\"" }, "geometry": { "type": "Point", "coordinates": [ -81.6486904, 35.0741085 ] } },
{ "type": "Feature", "properties": { "osm_id": "4121267695", "name": "Thompson Street Fire Station 16", "other_tags": "\"addr:city\"=>\"Gaffney\",\"addr:housenumber\"=>\"1011\",\"addr:postcode\"=>\"29340\",\"addr:state\"=>\"SC\",\"addr:street\"=>\"Thompson Street\",\"amenity\"=>\"fire_station\",\"operator\"=>\"City of Gaffney\"" }, "geometry": { "type": "Point", "coordinates": [ -81.6541993, 35.0466755 ] } },
{ "type": "Feature", "properties": { "osm_id": "4121267696", "name": "Overbrook Fire Station 14", "other_tags": "\"addr:city\"=>\"Gaffney\",\"addr:housenumber\"=>\"1247\",\"addr:postcode\"=>\"29341\",\"addr:state\"=>\"SC\",\"addr:street\"=>\"Overbrook Drive\",\"amenity\"=>\"fire_station\",\"operator\"=>\"City of Gaffney\"" }, "geometry": { "type": "Point", "coordinates": [ -81.6857311, 35.0755624 ] } },
{ "type": "Feature", "properties": { "osm_id": "4121267698", "name": "Beltline Fire Training Station 17", "other_tags": "\"addr:city\"=>\"Gaffney\",\"addr:housenumber\"=>\"105\",\"addr:postcode\"=>\"29341\",\"addr:state\"=>\"SC\",\"addr:street\"=>\"Beltline Road\",\"amenity\"=>\"fire_station\",\"operator\"=>\"City of Gaffney\"" }, "geometry": { "type": "Point", "coordinates": [ -81.6588707, 35.087496 ] } },
{ "type": "Feature", "properties": { "osm_id": "4323205582", "other_tags": "\"amenity\"=>\"fire_station\"" }, "geometry": { "type": "Point", "coordinates": [ -84.2230925, 36.3031324 ] } },
{ "type": "Feature", "properties": { "osm_id": "4332401841", "name": "Jacksboro Fire Department", "other_tags": "\"amenity\"=>\"fire_station\"" }, "geometry": { "type": "Point", "coordinates": [ -84.1828701, 36.3298386 ] } },
{ "type": "Feature", "properties": { "osm_id": "4332725990", "name": "1 Sweetwater Fire Station", "other_tags": "\"amenity\"=>\"fire_station\"" }, "geometry": { "type": "Point", "coordinates": [ -84.4896041, 35.5954913 ] } },
{ "type": "Feature", "properties": { "osm_id": "4348153388", "name": "FS35", "other_tags": "\"addr:city\"=>\"Memphis\",\"addr:housenumber\"=>\"3305\",\"addr:postcode\"=>\"38115\",\"addr:state\"=>\"TN\",\"addr:street\"=>\"South Mendenhall Road\",\"amenity\"=>\"fire_station\",\"description\"=>\"E35, T17, BT2\",\"operator\"=>\"Memphis FIRE\"" }, "geometry": { "type": "Point", "coordinates": [ -89.8864713, 35.058339 ] } },
{ "type": "Feature", "properties": { "osm_id": "4472095547", "name": "Fire Department of Ripley", "other_tags": "\"amenity\"=>\"fire_station\"" }, "geometry": { "type": "Point", "coordinates": [ -89.5323356, 35.7444997 ] } },
{ "type": "Feature", "properties": { "osm_id": "4572502959", "other_tags": "\"amenity\"=>\"fire_station\"" }, "geometry": { "type": "Point", "coordinates": [ -82.4771253, 35.3008823 ] } },
{ "type": "Feature", "properties": { "osm_id": "4611194139", "name": "Atwood Fire Department", "other_tags": "\"addr:city\"=>\"Atwood\",\"addr:housenumber\"=>\"47\",\"addr:postcode\"=>\"38220\",\"addr:state\"=>\"TN\",\"addr:street\"=>\"Back Street\",\"amenity\"=>\"fire_station\"" }, "geometry": { "type": "Point", "coordinates": [ -88.6794162, 35.9735704 ] } },
{ "type": "Feature", "properties": { "osm_id": "4644978341", "other_tags": "\"amenity\"=>\"fire_station\"" }, "geometry": { "type": "Point", "coordinates": [ -89.8620866, 35.1340446 ] } },
{ "type": "Feature", "properties": { "osm_id": "4668675378", "other_tags": "\"amenity\"=>\"fire_station\"" }, "geometry": { "type": "Point", "coordinates": [ -87.3371155, 35.24187 ] } },
{ "type": "Feature", "properties": { "osm_id": "4703226052", "name": "La Vergne Fire Station", "other_tags": "\"amenity\"=>\"fire_station\"" }, "geometry": { "type": "Point", "coordinates": [ -86.59689, 35.9894077 ] } },
{ "type": "Feature", "properties": { "osm_id": "4770416072", "other_tags": "\"amenity\"=>\"fire_station\",\"operator\"=>\"Gallatin Fire Department Station #4\"" }, "geometry": { "type": "Point", "coordinates": [ -86.5456826, 36.3721616 ] } },
{ "type": "Feature", "properties": { "osm_id": "4793328765", "other_tags": "\"amenity\"=>\"fire_station\"" }, "geometry": { "type": "Point", "coordinates": [ -86.1269855, 35.2685916 ] } },
{ "type": "Feature", "properties": { "osm_id": "4926018929", "name": "City of Clinton Fire Headquarters", "other_tags": "\"addr:housenumber\"=>\"101\",\"addr:street\"=>\"North Hicks Street\",\"amenity\"=>\"fire_station\"" }, "geometry": { "type": "Point", "coordinates": [ -84.1348954, 36.1006395 ] } },
{ "type": "Feature", "properties": { "osm_id": "5261505280", "name": "Caton's Chapel / Richardson Cove Volunteer Fire Department", "other_tags": "\"amenity\"=>\"fire_station\"" }, "geometry": { "type": "Point", "coordinates": [ -83.4476952, 35.8153033 ] } },
{ "type": "Feature", "properties": { "osm_id": "5468527773", "name": "Mount Carmel Fire Rescue", "other_tags": "\"amenity\"=>\"fire_station\"" }, "geometry": { "type": "Point", "coordinates": [ -82.656018, 36.5464469 ] } },
{ "type": "Feature", "properties": { "osm_id": "5468527776", "name": "Carter's Valley Fire Department", "other_tags": "\"amenity\"=>\"fire_station\"" }, "geometry": { "type": "Point", "coordinates": [ -82.6589681, 36.5816342 ] } },
{ "type": "Feature", "properties": { "osm_id": "5468527778", "name": "Church Hill Fire Department", "other_tags": "\"amenity\"=>\"fire_station\"" }, "geometry": { "type": "Point", "coordinates": [ -82.7061488, 36.5228754 ] } },
{ "type": "Feature", "properties": { "osm_id": "5525819963", "name": "Bolivar Fire Department", "other_tags": "\"amenity\"=>\"fire_station\"" }, "geometry": { "type": "Point", "coordinates": [ -88.9900071, 35.2573096 ] } },
{ "type": "Feature", "properties": { "osm_id": "5525888069", "name": "Grand Valley Lake Vol. Fire Station", "other_tags": "\"amenity\"=>\"fire_station\"" }, "geometry": { "type": "Point", "coordinates": [ -89.0138666, 35.1395435 ] } },
{ "type": "Feature", "properties": { "osm_id": "5546522458", "name": "Baileyton Volunteer Fire Department", "other_tags": "\"amenity\"=>\"fire_station\",\"operator\"=>\"Town of Baileyton\"" }, "geometry": { "type": "Point", "coordinates": [ -82.8384065, 36.3327772 ] } },
{ "type": "Feature", "properties": { "osm_id": "5826071743", "name": "Skyland Fire Rescue", "other_tags": "\"amenity\"=>\"fire_station\"" }, "geometry": { "type": "Point", "coordinates": [ -82.5240496, 35.4846403 ] } },
{ "type": "Feature", "properties": { "osm_id": "6010968300", "other_tags": "\"amenity\"=>\"fire_station\"" }, "geometry": { "type": "Point", "coordinates": [ -89.8361575, 35.2554418 ] } },
{ "type": "Feature", "properties": { "osm_id": "6074609135", "other_tags": "\"amenity\"=>\"fire_station\"" }, "geometry": { "type": "Point", "coordinates": [ -89.6708268, 35.2856676 ] } },
{ "type": "Feature", "properties": { "osm_id": "6075095084", "other_tags": "\"amenity\"=>\"fire_station\"" }, "geometry": { "type": "Point", "coordinates": [ -89.5753109, 35.3754518 ] } },
{ "type": "Feature", "properties": { "osm_id": "6152011633", "name": "Boiling Springs Fire Department Headquarters", "other_tags": "\"addr:city\"=>\"Boiling Springs\",\"addr:housenumber\"=>\"186\",\"addr:postcode\"=>\"29316\",\"addr:state\"=>\"SC\",\"addr:street\"=>\"Rainbow Lake Road\",\"amenity\"=>\"fire_station\",\"operator\"=>\"Boiling Springs Fire District\"" }, "geometry": { "type": "Point", "coordinates": [ -81.983299, 35.0537345 ] } },
{ "type": "Feature", "properties": { "osm_id": "6193960562", "name": "South Carthage Fire Department", "other_tags": "\"addr:city\"=>\"South Carthage\",\"addr:housenumber\"=>\"110\",\"addr:postcode\"=>\"37030\",\"addr:state\"=>\"TN\",\"addr:street\"=>\"Old State Hwy 53\",\"amenity\"=>\"fire_station\"" }, "geometry": { "type": "Point", "coordinates": [ -85.9544824, 36.2387285 ] } },
{ "type": "Feature", "properties": { "osm_id": "6418565370", "name": "Murfreesboro Fire Department Station 10", "other_tags": "\"amenity\"=>\"fire_station\"" }, "geometry": { "type": "Point", "coordinates": [ -86.4743048, 35.800431 ] } },
{ "type": "Feature", "properties": { "osm_id": "6419914647", "name": "Oakley - Asheville Fire Station 9", "other_tags": "\"addr:housenumber\"=>\"749\",\"addr:street\"=>\"Fairview Road\",\"amenity\"=>\"fire_station\"" }, "geometry": { "type": "Point", "coordinates": [ -82.5135038, 35.5643133 ] } },
{ "type": "Feature", "properties": { "osm_id": "6590370128", "name": "DeBusk Volunteer Fire Department", "other_tags": "\"amenity\"=>\"fire_station\"" }, "geometry": { "type": "Point", "coordinates": [ -82.8740358, 36.1123381 ] } },
{ "type": "Feature", "properties": { "osm_id": "6848045625", "name": "Gerton Volunteer Fire Department", "other_tags": "\"addr:city\"=>\"Gerton\",\"addr:housenumber\"=>\"4975\",\"addr:postcode\"=>\"28735\",\"addr:state\"=>\"NC\",\"addr:street\"=>\"Gerton Highway\",\"amenity\"=>\"fire_station\",\"phone\"=>\"+18286252779\"" }, "geometry": { "type": "Point", "coordinates": [ -82.3470207, 35.4784136 ] } },
{ "type": "Feature", "properties": { "osm_id": "6848093689", "name": "Fairview Fire Department", "other_tags": "\"addr:city\"=>\"Fairview\",\"addr:housenumber\"=>\"1586\",\"addr:postcode\"=>\"28730\",\"addr:state\"=>\"NC\",\"addr:street\"=>\"Charlotte Highway\",\"amenity\"=>\"fire_station\",\"operator\"=>\"Fairview Volunteer Fire Department\"" }, "geometry": { "type": "Point", "coordinates": [ -82.3979263, 35.5154974 ] } },
{ "type": "Feature", "properties": { "osm_id": "6854580310", "name": "Polkville VFD Station 1", "other_tags": "\"addr:city\"=>\"Shelby\",\"addr:housenumber\"=>\"4315\",\"addr:postcode\"=>\"28136\",\"addr:state\"=>\"NC\",\"addr:street\"=>\"Polkville Road\",\"amenity\"=>\"fire_station\",\"phone\"=>\"+17045387831\"" }, "geometry": { "type": "Point", "coordinates": [ -81.6433311, 35.4142 ] } },
{ "type": "Feature", "properties": { "osm_id": "6872649833", "name": "Union Mills Volunteer Fire", "other_tags": "\"addr:city\"=>\"Union Mills\",\"addr:housenumber\"=>\"6791\",\"addr:postcode\"=>\"28167\",\"addr:state\"=>\"NC\",\"addr:street\"=>\"Hudlow Road\",\"amenity\"=>\"fire_station\",\"phone\"=>\"+18282877118\"" }, "geometry": { "type": "Point", "coordinates": [ -81.9777179, 35.4908513 ] } },
{ "type": "Feature", "properties": { "osm_id": "7188825074", "name": "Clay County Fire and Rescue", "other_tags": "\"addr:city\"=>\"Hayesville\",\"addr:housenumber\"=>\"30\",\"addr:postcode\"=>\"28904\",\"addr:state\"=>\"NC\",\"addr:street\"=>\"May Street\",\"amenity\"=>\"fire_station\",\"phone\"=>\"(828) 389-6905\"" }, "geometry": { "type": "Point", "coordinates": [ -83.8204828, 35.0457167 ] } },
{ "type": "Feature", "properties": { "osm_id": "7188825079", "name": "Volunteer Fire Station", "other_tags": "\"amenity\"=>\"fire_station\"" }, "geometry": { "type": "Point", "coordinates": [ -83.8812049, 35.0776875 ] } },
{ "type": "Feature", "properties": { "osm_id": "7188989484", "name": "Fire Station 11", "other_tags": "\"addr:city\"=>\"Jamestown\",\"addr:housenumber\"=>\"2325\",\"addr:postcode\"=>\"38556\",\"addr:state\"=>\"TN\",\"addr:street\"=>\"Leatherwood Ford Road\",\"addr:unit\"=>\"11\",\"amenity\"=>\"fire_station\",\"operator\"=>\"Fentress County\"" }, "geometry": { "type": "Point", "coordinates": [ -84.815362, 36.502167 ] } },
{ "type": "Feature", "properties": { "osm_id": "7189035488", "name": "Fire Station 5", "other_tags": "\"addr:city\"=>\"Jamestown\",\"addr:housenumber\"=>\"2563\",\"addr:postcode\"=>\"38556\",\"addr:state\"=>\"TN\",\"addr:street\"=>\"Pickett Park Highway\",\"addr:unit\"=>\"5\",\"amenity\"=>\"fire_station\",\"operator\"=>\"Fentress County\"" }, "geometry": { "type": "Point", "coordinates": [ -84.869064, 36.4682362 ] } },
{ "type": "Feature", "properties": { "osm_id": "7189148491", "name": "Fire Station 1", "other_tags": "\"addr:city\"=>\"Jamestown\",\"addr:housenumber\"=>\"116\",\"addr:state\"=>\"TN\",\"addr:street\"=>\"Justice Center Drive\",\"addr:unit\"=>\"1\",\"amenity\"=>\"fire_station\",\"operator\"=>\"Fentress County\"" }, "geometry": { "type": "Point", "coordinates": [ -84.9270633, 36.4195875 ] } },
{ "type": "Feature", "properties": { "osm_id": "7221020748", "name": "Crabtree Ironduff VFD", "other_tags": "\"addr:city\"=>\"Clyde\",\"addr:housenumber\"=>\"99\",\"addr:postcode\"=>\"28721\",\"addr:state\"=>\"NC\",\"addr:street\"=>\"Susie Noland Road\",\"amenity\"=>\"fire_station\",\"phone\"=>\"(828) 627-3138\"" }, "geometry": { "type": "Point", "coordinates": [ -82.936556, 35.5965262 ] } },
{ "type": "Feature", "properties": { "osm_id": "7221111321", "name": "Clyde Volunteer Fire Department", "other_tags": "\"addr:city\"=>\"Clyde\",\"addr:housenumber\"=>\"8531\",\"addr:postcode\"=>\"28721\",\"addr:state\"=>\"NC\",\"addr:street\"=>\"Carolina Boulevard\",\"amenity\"=>\"fire_station\",\"phone\"=>\"(828) 627-8842\"" }, "geometry": { "type": "Point", "coordinates": [ -82.9138023, 35.5323024 ] } },
{ "type": "Feature", "properties": { "osm_id": "7221229387", "name": "Dysartville Fire Department", "other_tags": "\"addr:city\"=>\"Nebo\",\"addr:housenumber\"=>\"9184\",\"addr:postcode\"=>\"28761\",\"addr:state\"=>\"NC\",\"addr:street\"=>\"NC-226\",\"amenity\"=>\"fire_station\",\"phone\"=>\"(828) 652-8537\"" }, "geometry": { "type": "Point", "coordinates": [ -81.8864262, 35.6309581 ] } },
{ "type": "Feature", "properties": { "osm_id": "7222972673", "name": "Marion Fire Department", "other_tags": "\"addr:city\"=>\"Marion\",\"addr:housenumber\"=>\"60\",\"addr:postcode\"=>\"28752\",\"addr:state\"=>\"NC\",\"addr:street\"=>\"West Court Street\",\"amenity\"=>\"fire_station\",\"phone\"=>\"(828) 652-5201\"" }, "geometry": { "type": "Point", "coordinates": [ -82.0101817, 35.683849 ] } },
{ "type": "Feature", "properties": { "osm_id": "7222985131", "name": "P G Fire Department", "other_tags": "\"addr:city\"=>\"Marion\",\"addr:housenumber\"=>\"2703\",\"addr:postcode\"=>\"28752\",\"addr:state\"=>\"NC\",\"addr:street\"=>\"US-70\",\"amenity\"=>\"fire_station\",\"phone\"=>\"(828) 652-0674\"" }, "geometry": { "type": "Point", "coordinates": [ -82.0736871, 35.6901948 ] } },
{ "type": "Feature", "properties": { "osm_id": "7237081630", "other_tags": "\"amenity\"=>\"fire_station\"" }, "geometry": { "type": "Point", "coordinates": [ -87.3134835, 36.0520287 ] } },
{ "type": "Feature", "properties": { "osm_id": "7240854598", "name": "Buladean Volunteer Fire Department", "other_tags": "\"addr:city\"=>\"Bakersville\",\"addr:housenumber\"=>\"28\",\"addr:postcode\"=>\"28705\",\"addr:state\"=>\"NC\",\"addr:street\"=>\"Firehouse Road\",\"amenity\"=>\"fire_station\",\"phone\"=>\"(828) 688-4322\"" }, "geometry": { "type": "Point", "coordinates": [ -82.1940678, 36.1054142 ] } },
{ "type": "Feature", "properties": { "osm_id": "7241242920", "name": "Brownsville Fire Department", "other_tags": "\"addr:city\"=>\"Brownsville\",\"addr:housenumber\"=>\"19\",\"addr:postcode\"=>\"38012\",\"addr:state\"=>\"TN\",\"addr:street\"=>\"West Franklin Street\",\"amenity\"=>\"fire_station\",\"description\"=>\"Station #1\",\"phone\"=>\"+1-731-772-1396\"" }, "geometry": { "type": "Point", "coordinates": [ -89.2626318, 35.5950112 ] } },
{ "type": "Feature", "properties": { "osm_id": "7244947915", "name": "Woodlawn-Sevier Fire Department", "other_tags": "\"addr:city\"=>\"Marion\",\"addr:housenumber\"=>\"44\",\"addr:postcode\"=>\"28752\",\"addr:state\"=>\"NC\",\"addr:street\"=>\"North Valley Street\",\"amenity\"=>\"fire_station\",\"phone\"=>\"(828) 756-4965\"" }, "geometry": { "type": "Point", "coordinates": [ -82.0387428, 35.7873389 ] } },
{ "type": "Feature", "properties": { "osm_id": "7244947917", "name": "Ashford North Cove Fire Department", "other_tags": "\"addr:city\"=>\"Marion\",\"addr:housenumber\"=>\"15640\",\"addr:postcode\"=>\"28752\",\"addr:state\"=>\"NC\",\"addr:street\"=>\"US-221 North\",\"amenity\"=>\"fire_station\",\"phone\"=>\"(828) 559-5021\"" }, "geometry": { "type": "Point", "coordinates": [ -81.9569385, 35.8624461 ] } },
{ "type": "Feature", "properties": { "osm_id": "7264558793", "name": "Brendletown Fire Station", "other_tags": "\"addr:city\"=>\"Morganton\",\"addr:housenumber\"=>\"75-1\",\"addr:postcode\"=>\"28655\",\"addr:state\"=>\"NC\",\"addr:street\"=>\"US-64\",\"amenity\"=>\"fire_station\",\"operator\"=>\"Brendletown Fire Station U.S., 75-1 US-64, Morganton, NC 28655\",\"phone\"=>\"+18285840394\"" }, "geometry": { "type": "Point", "coordinates": [ -81.7805393, 35.642517 ] } },
{ "type": "Feature", "properties": { "osm_id": "7266332759", "name": "Hudlow Volunteer Fire Department", "other_tags": "\"addr:city\"=>\"Forest City\",\"addr:housenumber\"=>\"2910\",\"addr:postcode\"=>\"28043\",\"addr:state\"=>\"NC\",\"addr:street\"=>\"Hudlow Road\",\"amenity\"=>\"fire_station\",\"phone\"=>\"(828) 287-7716\"" }, "geometry": { "type": "Point", "coordinates": [ -81.9120756, 35.414272 ] } },
{ "type": "Feature", "properties": { "osm_id": "7266676647", "name": "Bostic Volunteer Fire Department 2", "other_tags": "\"addr:city\"=>\"Bostic\",\"addr:housenumber\"=>\"109\",\"addr:postcode\"=>\"28018\",\"addr:state\"=>\"NC\",\"addr:street\"=>\"Main Street\",\"amenity\"=>\"fire_station\"" }, "geometry": { "type": "Point", "coordinates": [ -81.836356, 35.3618971 ] } },
{ "type": "Feature", "properties": { "osm_id": "7266676655", "name": "Cherry Mountain Vol Fire Department", "other_tags": "\"addr:city\"=>\"Bostic\",\"addr:housenumber\"=>\"5841\",\"addr:postcode\"=>\"28018\",\"addr:state\"=>\"NC\",\"addr:street\"=>\"Bostic Sunshine Highway\",\"amenity\"=>\"fire_station\",\"phone\"=>\"(828) 245-1935\"" }, "geometry": { "type": "Point", "coordinates": [ -81.7846325, 35.4773412 ] } },
{ "type": "Feature", "properties": { "osm_id": "7359285909", "name": "Lodge Community Center-Laurel Rdg", "other_tags": "\"addr:city\"=>\"Black Mountain\",\"addr:housenumber\"=>\"51\",\"addr:postcode\"=>\"28711\",\"addr:state\"=>\"NC\",\"addr:street\"=>\"Wedgewood Terrace\",\"amenity\"=>\"fire_station\"" }, "geometry": { "type": "Point", "coordinates": [ -82.3690291, 35.6684791 ] } },
{ "type": "Feature", "properties": { "osm_id": "7430311339", "name": "The Broad River Volunteer Fire & Rescue Department", "other_tags": "\"addr:city\"=>\"Black Mountain\",\"addr:housenumber\"=>\"44\",\"addr:postcode\"=>\"28711\",\"addr:state\"=>\"NC\",\"addr:street\"=>\"Broad River VFD Road\",\"amenity\"=>\"fire_station\",\"phone\"=>\"(828) 669-0488\"" }, "geometry": { "type": "Point", "coordinates": [ -82.2576979, 35.510076 ] } },
{ "type": "Feature", "properties": { "osm_id": "7572763363", "name": "Fire Station 3", "other_tags": "\"amenity\"=>\"fire_station\"" }, "geometry": { "type": "Point", "coordinates": [ -84.9799358, 36.2660823 ] } },
{ "type": "Feature", "properties": { "osm_id": "7662590886", "name": "Chapel Hill Fire Department", "other_tags": "\"amenity\"=>\"fire_station\"" }, "geometry": { "type": "Point", "coordinates": [ -86.6934292, 35.627185 ] } },
{ "type": "Feature", "properties": { "osm_id": "7777894789", "other_tags": "\"amenity\"=>\"fire_station\"" }, "geometry": { "type": "Point", "coordinates": [ -89.7378722, 35.2265744 ] } },
{ "type": "Feature", "properties": { "osm_id": "7809231517", "name": "Fulton City Fire Department", "other_tags": "\"amenity\"=>\"fire_station\"" }, "geometry": { "type": "Point", "coordinates": [ -88.8762382, 36.5112903 ] } },
{ "type": "Feature", "properties": { "osm_id": "7931536167", "name": "Ellenboro Fire Department", "other_tags": "\"addr:city\"=>\"Ellenboro\",\"addr:housenumber\"=>\"175\",\"addr:postcode\"=>\"28040\",\"addr:state\"=>\"NC\",\"addr:street\"=>\"Depot Street\",\"amenity\"=>\"fire_station\"" }, "geometry": { "type": "Point", "coordinates": [ -81.758242, 35.3270547 ] } },
{ "type": "Feature", "properties": { "osm_id": "7997469221", "name": "Fire Station 8 - Allardt", "other_tags": "\"addr:city\"=>\"Allardt\",\"addr:housenumber\"=>\"2011\",\"addr:postcode\"=>\"38504\",\"addr:state\"=>\"TN\",\"addr:street\"=>\"Michigan Avenue\",\"addr:unit\"=>\"8\",\"amenity\"=>\"fire_station\",\"operator\"=>\"City Of Allardt\",\"phone\"=>\"(931) 879-2648\"" }, "geometry": { "type": "Point", "coordinates": [ -84.8821547, 36.3809722 ] } },
{ "type": "Feature", "properties": { "osm_id": "8037296168", "name": "Maggie Valley Fire Department", "other_tags": "\"addr:city\"=>\"Maggie Valley\",\"addr:housenumber\"=>\"2901\",\"addr:postcode\"=>\"28751\",\"addr:state\"=>\"NC\",\"addr:street\"=>\"Soco Road\",\"amenity\"=>\"fire_station\",\"phone\"=>\"+18289260948\"" }, "geometry": { "type": "Point", "coordinates": [ -83.0775417, 35.5118804 ] } },
{ "type": "Feature", "properties": { "osm_id": "8274522163", "name": "Chesnee City FD", "other_tags": "\"amenity\"=>\"fire_station\"" }, "geometry": { "type": "Point", "coordinates": [ -81.8620189, 35.1482091 ] } },
{ "type": "Feature", "properties": { "osm_id": "8329439527", "name": "Sugar Hill Fire Department", "other_tags": "\"addr:city\"=>\"Marion\",\"addr:housenumber\"=>\"8883\",\"addr:postcode\"=>\"28752\",\"addr:state\"=>\"NC\",\"addr:street\"=>\"Sugar Hill Road\",\"amenity\"=>\"fire_station\",\"phone\"=>\"+18287383100\"" }, "geometry": { "type": "Point", "coordinates": [ -82.0413387, 35.5850467 ] } },
{ "type": "Feature", "properties": { "osm_id": "8420169858", "name": "Spruce Pine Fire Department", "other_tags": "\"addr:city\"=>\"Spruce Pine\",\"addr:housenumber\"=>\"100\",\"addr:postcode\"=>\"28777\",\"addr:state\"=>\"NC\",\"addr:street\"=>\"Fire Fighters Way\",\"amenity\"=>\"fire_station\",\"phone\"=>\"+18287653009\"" }, "geometry": { "type": "Point", "coordinates": [ -82.0722558, 35.9088722 ] } },
{ "type": "Feature", "properties": { "osm_id": "8421455504", "name": "Parkway Fire & Rescue", "other_tags": "\"addr:city\"=>\"Spruce Pine\",\"addr:housenumber\"=>\"12966\",\"addr:postcode\"=>\"28777\",\"addr:state\"=>\"NC\",\"addr:street\"=>\"NC-226\",\"amenity\"=>\"fire_station\",\"phone\"=>\"+18287652117\"" }, "geometry": { "type": "Point", "coordinates": [ -82.0580386, 35.8819851 ] } },
{ "type": "Feature", "properties": { "osm_id": "8483485159", "name": "Blowing Rock Fire & Rescue Sation 1", "other_tags": "\"amenity\"=>\"fire_station\"" }, "geometry": { "type": "Point", "coordinates": [ -81.6709352, 36.1301424 ] } },
{ "type": "Feature", "properties": { "osm_id": "8833382611", "name": "City of Loudon Fire Department", "other_tags": "\"addr:city\"=>\"Loudon\",\"addr:housenumber\"=>\"100\",\"addr:postcode\"=>\"37774\",\"addr:state\"=>\"TN\",\"addr:street\"=>\"Cedar Street\",\"amenity\"=>\"fire_station\",\"operator\"=>\"City of Loudon\"" }, "geometry": { "type": "Point", "coordinates": [ -84.3342593, 35.7418274 ] } },
{ "type": "Feature", "properties": { "osm_id": "8833395142", "name": "Loudon Fire Station 2", "other_tags": "\"amenity\"=>\"fire_station\",\"operator\"=>\"City of Loudon Fire Department\"" }, "geometry": { "type": "Point", "coordinates": [ -84.4014125, 35.7351537 ] } },
{ "type": "Feature", "properties": { "osm_id": "8895353617", "name": "Murfreesboro Fire and Rescue Station 4", "other_tags": "\"amenity\"=>\"fire_station\"" }, "geometry": { "type": "Point", "coordinates": [ -86.4148785, 35.8574179 ] } },
{ "type": "Feature", "properties": { "osm_id": "8946773084", "name": "Rutherford County Fire & Rescue Station 51", "other_tags": "\"amenity\"=>\"fire_station\"" }, "geometry": { "type": "Point", "coordinates": [ -86.426631, 35.7918391 ] } },
{ "type": "Feature", "properties": { "osm_id": "9163678897", "name": "Bellbuckle Fire Station", "other_tags": "\"amenity\"=>\"fire_station\"" }, "geometry": { "type": "Point", "coordinates": [ -86.3553915, 35.5911449 ] } },
{ "type": "Feature", "properties": { "osm_id": "9258693141", "name": "Nashville Fire Department Station 23", "other_tags": "\"amenity\"=>\"fire_station\",\"playground:theme\"=>\"fire_station\"" }, "geometry": { "type": "Point", "coordinates": [ -86.8619054, 36.1688645 ] } },
{ "type": "Feature", "properties": { "osm_id": "9258721234", "name": "Nashville  Fire Department Station 22", "other_tags": "\"amenity\"=>\"fire_station\",\"playground:theme\"=>\"fire_station\"" }, "geometry": { "type": "Point", "coordinates": [ -86.6884172, 36.216682 ] } },
{ "type": "Feature", "properties": { "osm_id": "9258733082", "name": "Nashville Fire Department Station 17", "other_tags": "\"amenity\"=>\"fire_station\"" }, "geometry": { "type": "Point", "coordinates": [ -86.8358501, 36.1306571 ] } },
{ "type": "Feature", "properties": { "osm_id": "9365463799", "name": "Morristown Fire Department Station 4", "other_tags": "\"addr:city\"=>\"Morristown\",\"addr:postcode\"=>\"37814\",\"addr:state\"=>\"TN\",\"amenity\"=>\"fire_station\",\"gnis:feature_id\"=>\"2654954\"" }, "geometry": { "type": "Point", "coordinates": [ -83.3494839, 36.1955333 ] } },
{ "type": "Feature", "properties": { "osm_id": "9365479876", "name": "Fentress County Volunteer Fire Department Station 6 Pall Mall", "other_tags": "\"addr:city\"=>\"Pall Mall\",\"addr:postcode\"=>\"38577\",\"addr:state\"=>\"TN\",\"amenity\"=>\"fire_station\",\"gnis:feature_id\"=>\"2654917\"" }, "geometry": { "type": "Point", "coordinates": [ -84.9640447, 36.542694 ] } },
{ "type": "Feature", "properties": { "osm_id": "9365479946", "name": "South Fulton Fire Department", "other_tags": "\"addr:city\"=>\"South Fulton\",\"addr:postcode\"=>\"38257\",\"addr:state\"=>\"TN\",\"amenity\"=>\"fire_station\",\"gnis:feature_id\"=>\"2653645\"" }, "geometry": { "type": "Point", "coordinates": [ -88.8765907, 36.4918958 ] } },
{ "type": "Feature", "properties": { "osm_id": "9559730663", "name": "Keith Springs Fire Department", "other_tags": "\"amenity\"=>\"fire_station\"" }, "geometry": { "type": "Point", "coordinates": [ -86.1168556, 35.0997452 ] } },
{ "type": "Feature", "properties": { "osm_id": "9669334575", "name": "Longtown Volunteer Fire Department", "other_tags": "\"addr:city\"=>\"Nebo\",\"addr:housenumber\"=>\"7765\",\"addr:postcode\"=>\"28761\",\"addr:state\"=>\"NC\",\"addr:street\"=>\"South Mountain Institute Road\",\"amenity\"=>\"fire_station\"" }, "geometry": { "type": "Point", "coordinates": [ -81.9193455, 35.771796 ] } },
{ "type": "Feature", "properties": { "osm_id": "9706397136", "other_tags": "\"amenity\"=>\"fire_station\"" }, "geometry": { "type": "Point", "coordinates": [ -85.1882713, 36.3844508 ] } },
{ "type": "Feature", "properties": { "osm_id": "9738559435", "name": "Oak Hill Fire & Rescue Station", "other_tags": "\"addr:city\"=>\"Morganton\",\"addr:housenumber\"=>\"3000\",\"addr:postcode\"=>\"28655\",\"addr:state\"=>\"NC\",\"addr:street\"=>\"Brown Mountain Beach Road\",\"amenity\"=>\"fire_station\",\"phone\"=>\"+18284392400\",\"website\"=>\"http://www.oakhillonline.org/\"" }, "geometry": { "type": "Point", "coordinates": [ -81.7707519, 35.8700022 ] } },
{ "type": "Feature", "properties": { "osm_id": "9742139659", "name": "Glen Alpine Fire Department", "other_tags": "\"addr:city\"=>\"Glen Alpine\",\"addr:housenumber\"=>\"103\",\"addr:postcode\"=>\"28628\",\"addr:state\"=>\"NC\",\"addr:street\"=>\"Pitts Street\",\"amenity\"=>\"fire_station\",\"phone\"=>\"+18285842622\"" }, "geometry": { "type": "Point", "coordinates": [ -81.7791053, 35.7294272 ] } },
{ "type": "Feature", "properties": { "osm_id": "9747027760", "name": "Hankins North Fork VFD", "other_tags": "\"addr:city\"=>\"Marion\",\"addr:housenumber\"=>\"3220\",\"addr:postcode\"=>\"28752\",\"addr:state\"=>\"NC\",\"addr:street\"=>\"Hankins Road\",\"amenity\"=>\"fire_station\",\"phone\"=>\"+18286551507\"" }, "geometry": { "type": "Point", "coordinates": [ -81.9953141, 35.7305053 ] } },
{ "type": "Feature", "properties": { "osm_id": "9760723409", "name": "Chanute Fire Hall", "other_tags": "\"amenity\"=>\"fire_station\"" }, "geometry": { "type": "Point", "coordinates": [ -85.0594917, 36.605463 ] } },
{ "type": "Feature", "properties": { "osm_id": "9781996660", "name": "Etowah Horse Shoe Vol Fire/Res", "other_tags": "\"addr:city\"=>\"Etowah\",\"addr:housenumber\"=>\"15\",\"addr:postcode\"=>\"28729\",\"addr:state\"=>\"NC\",\"addr:street\"=>\"Morgan Road\",\"amenity\"=>\"fire_station\",\"phone\"=>\"+18288913102\"" }, "geometry": { "type": "Point", "coordinates": [ -82.5784343, 35.3250176 ] } },
{ "type": "Feature", "properties": { "osm_id": "9781996666", "name": "Rosman Fire Rescue", "other_tags": "\"addr:city\"=>\"Rosman\",\"addr:housenumber\"=>\"624\",\"addr:postcode\"=>\"28772\",\"addr:state\"=>\"NC\",\"addr:street\"=>\"Pickens Highway\",\"amenity\"=>\"fire_station\",\"phone\"=>\"+18288624000\"" }, "geometry": { "type": "Point", "coordinates": [ -82.8227681, 35.145048 ] } },
{ "type": "Feature", "properties": { "osm_id": "9783016396", "name": "Valleytown Fire Station 29-2", "other_tags": "\"addr:city\"=>\"Marble\",\"addr:housenumber\"=>\"2184\",\"addr:postcode\"=>\"28905\",\"addr:state\"=>\"NC\",\"addr:street\"=>\"Airport Road\",\"amenity\"=>\"fire_station\"" }, "geometry": { "type": "Point", "coordinates": [ -83.9219633, 35.1788322 ] } },
{ "type": "Feature", "properties": { "osm_id": "9796623124", "name": "Saluda Fire & Rescue", "other_tags": "\"addr:city\"=>\"Saluda\",\"addr:housenumber\"=>\"199\",\"addr:postcode\"=>\"28773\",\"addr:state\"=>\"NC\",\"addr:street\"=>\"Walnut Street\",\"amenity\"=>\"fire_station\",\"phone\"=>\"+18287499816\"" }, "geometry": { "type": "Point", "coordinates": [ -82.3504231, 35.2335383 ] } },
{ "type": "Feature", "properties": { "osm_id": "9796623126", "name": "Green River Volunteer Fire", "other_tags": "\"addr:city\"=>\"Zirconia\",\"addr:housenumber\"=>\"1524\",\"addr:postcode\"=>\"28790\",\"addr:state\"=>\"NC\",\"addr:street\"=>\"Old US Highway 25\",\"amenity\"=>\"fire_station\",\"phone\"=>\"+18286924009\"" }, "geometry": { "type": "Point", "coordinates": [ -82.4329928, 35.2247436 ] } },
{ "type": "Feature", "properties": { "osm_id": "9807526594", "name": "Wolf Creek Fire Department", "other_tags": "\"addr:city\"=>\"Murphy\",\"addr:housenumber\"=>\"18903\",\"addr:postcode\"=>\"28906\",\"addr:state\"=>\"NC\",\"addr:street\"=>\"Andrew Jackson Highway\",\"amenity\"=>\"fire_station\",\"phone\"=>\"(828) 494-2299\"" }, "geometry": { "type": "Point", "coordinates": [ -84.2973375, 35.0127844 ] } },
{ "type": "Feature", "properties": { "osm_id": "9808614173", "name": "West Swain Fire Department", "other_tags": "\"addr:city\"=>\"Bryson City\",\"addr:housenumber\"=>\"114\",\"addr:postcode\"=>\"28713\",\"addr:state\"=>\"NC\",\"addr:street\"=>\"Needmore Road\",\"amenity\"=>\"fire_station\",\"phone\"=>\"+1-828-488-2269\"" }, "geometry": { "type": "Point", "coordinates": [ -83.5474737, 35.3633748 ] } },
{ "type": "Feature", "properties": { "osm_id": "9815983998", "name": "Fire Station 4 - Armathwaite", "other_tags": "\"amenity\"=>\"fire_station\"" }, "geometry": { "type": "Point", "coordinates": [ -84.7941778, 36.3823063 ] } },
{ "type": "Feature", "properties": { "osm_id": "9815984807", "name": "Fire Station 12 - Mt Helen / Honey Creek", "other_tags": "\"amenity\"=>\"fire_station\"" }, "geometry": { "type": "Point", "coordinates": [ -84.6781858, 36.4146795 ] } },
{ "type": "Feature", "properties": { "osm_id": "9822797135", "name": "West End Fire Station 77-1", "other_tags": "\"addr:city\"=>\"Morganton\",\"addr:housenumber\"=>\"3776\",\"addr:postcode\"=>\"28655\",\"addr:state\"=>\"NC\",\"addr:street\"=>\"Jamestown Road\",\"amenity\"=>\"fire_station\",\"phone\"=>\"+18285843160\"" }, "geometry": { "type": "Point", "coordinates": [ -81.8356376, 35.6893275 ] } },
{ "type": "Feature", "properties": { "osm_id": "9847074022", "name": "Collierville Fire and Rescue Station #1", "other_tags": "\"addr:city\"=>\"Collierville\",\"addr:housenumber\"=>\"128\",\"addr:postcode\"=>\"38017\",\"addr:state\"=>\"TN\",\"addr:street\"=>\"North Main Street\",\"amenity\"=>\"fire_station\",\"operator\"=>\"Town of Collierville\"" }, "geometry": { "type": "Point", "coordinates": [ -89.6639553, 35.0433843 ] } },
{ "type": "Feature", "properties": { "osm_id": "9851571517", "name": "Hudlow Fire Department Sta. 2", "other_tags": "\"amenity\"=>\"fire_station\",\"website\"=>\"http://www.hudlowfd.com\"" }, "geometry": { "type": "Point", "coordinates": [ -81.8862821, 35.4560786 ] } },
{ "type": "Feature", "properties": { "osm_id": "9855874691", "name": "Country Volunteer Fire Department", "other_tags": "\"addr:city\"=>\"Hot Springs\",\"addr:housenumber\"=>\"486\",\"addr:postcode\"=>\"28743\",\"addr:state\"=>\"NC\",\"addr:street\"=>\"Church Road\",\"amenity\"=>\"fire_station\",\"phone\"=>\"+18286229775\"" }, "geometry": { "type": "Point", "coordinates": [ -82.8785104, 35.8989514 ] } },
{ "type": "Feature", "properties": { "osm_id": "9901970622", "name": "Pond Mountain Fire Station 11-1", "other_tags": "\"addr:city\"=>\"Creston\",\"addr:housenumber\"=>\"6038\",\"addr:postcode\"=>\"28615\",\"addr:state\"=>\"NC\",\"addr:street\"=>\"Joines Road\",\"amenity\"=>\"fire_station\"" }, "geometry": { "type": "Point", "coordinates": [ -81.6714204, 36.5320261 ] } },
{ "type": "Feature", "properties": { "osm_id": "9907689662", "name": "Green Valley VFD Station 51/Avery County EMS", "other_tags": "\"addr:city\"=>\"Newland\",\"addr:housenumber\"=>\"8602\",\"addr:postcode\"=>\"28657\",\"addr:state\"=>\"NC\",\"addr:street\"=>\"US-19 E\",\"amenity\"=>\"fire_station\",\"phone\"=>\"+18287659465\"" }, "geometry": { "type": "Point", "coordinates": [ -82.0159261, 35.9804268 ] } },
{ "type": "Feature", "properties": { "osm_id": "9957354187", "name": "Cruso Fire and Rescue", "other_tags": "\"addr:city\"=>\"Canton\",\"addr:housenumber\"=>\"13264\",\"addr:postcode\"=>\"28716\",\"addr:state\"=>\"NC\",\"addr:street\"=>\"Cruso Road\",\"amenity\"=>\"fire_station\",\"phone\"=>\"+18282358247\"" }, "geometry": { "type": "Point", "coordinates": [ -82.8120434, 35.4181716 ] } },
{ "type": "Feature", "properties": { "osm_id": "9957431950", "name": "Cruso Fire & Rescue Memorial Sub-station", "other_tags": "\"addr:city\"=>\"Canton\",\"addr:housenumber\"=>\"770\",\"addr:postcode\"=>\"28716\",\"addr:state\"=>\"NC\",\"addr:street\"=>\"Old Michael Road\",\"amenity\"=>\"fire_station\",\"phone\"=>\"+18282358247\"" }, "geometry": { "type": "Point", "coordinates": [ -82.8403067, 35.4581093 ] } },
{ "type": "Feature", "properties": { "osm_id": "9957931341", "name": "Saunook Fire Department", "other_tags": "\"addr:city\"=>\"Waynesville\",\"addr:housenumber\"=>\"2908\",\"addr:postcode\"=>\"28786\",\"addr:state\"=>\"NC\",\"addr:street\"=>\"Old Balsam Road\",\"amenity\"=>\"fire_station\",\"phone\"=>\"+18284522946\"" }, "geometry": { "type": "Point", "coordinates": [ -83.0561682, 35.4520182 ] } },
{ "type": "Feature", "properties": { "osm_id": "9957941900", "name": "Balsam Willets Ochre Hill Fire", "other_tags": "\"addr:city\"=>\"Sylva\",\"addr:housenumber\"=>\"36\",\"addr:postcode\"=>\"28799\",\"addr:state\"=>\"NC\",\"addr:street\"=>\"Mount Pleasant Church Road\",\"amenity\"=>\"fire_station\",\"phone\"=>\"+18285863756\"" }, "geometry": { "type": "Point", "coordinates": [ -83.1154603, 35.4116368 ] } },
{ "type": "Feature", "properties": { "osm_id": "9963726095", "name": "Enola Fire Department", "other_tags": "\"addr:city\"=>\"Morganton\",\"addr:housenumber\"=>\"2510\",\"addr:postcode\"=>\"28655\",\"addr:state\"=>\"NC\",\"addr:street\"=>\"Enola Road\",\"amenity\"=>\"fire_station\",\"phone\"=>\"+18284389002\"" }, "geometry": { "type": "Point", "coordinates": [ -81.6499378, 35.6622325 ] } },
{ "type": "Feature", "properties": { "osm_id": "9990582993", "name": "Frank Fire Department", "other_tags": "\"addr:city\"=>\"Newland\",\"addr:housenumber\"=>\"699\",\"addr:postcode\"=>\"28657\",\"addr:state\"=>\"NC\",\"addr:street\"=>\"US-19 East\",\"amenity\"=>\"fire_station\",\"phone\"=>\"+18287339336\"" }, "geometry": { "type": "Point", "coordinates": [ -82.00262, 36.0792091 ] } },
{ "type": "Feature", "properties": { "osm_id": "10021289071", "name": "Old Fort Fire Department", "other_tags": "\"addr:city\"=>\"Old Fort\",\"addr:housenumber\"=>\"84\",\"addr:postcode\"=>\"28762\",\"addr:state\"=>\"NC\",\"addr:street\"=>\"East Main Street\",\"amenity\"=>\"fire_station\",\"phone\"=>\"+18286687625\"" }, "geometry": { "type": "Point", "coordinates": [ -82.1800308, 35.6296053 ] } },
{ "type": "Feature", "properties": { "osm_id": "10050034580", "name": "Station 15", "other_tags": "\"addr:city\"=>\"College Grove\",\"addr:housenumber\"=>\"6997\",\"addr:postcode\"=>\"37046\",\"addr:state\"=>\"TN\",\"addr:street\"=>\"Giles Hill Road\",\"amenity\"=>\"fire_station\",\"operator\"=>\"Williamson Fire-Rescue\"" }, "geometry": { "type": "Point", "coordinates": [ -86.7363368, 35.7207038 ] } },
{ "type": "Feature", "properties": { "osm_id": "10050034581", "name": "Station 17", "other_tags": "\"addr:city\"=>\"Thompson Station\",\"addr:housenumber\"=>\"4911\",\"addr:postcode\"=>\"37179\",\"addr:state\"=>\"TN\",\"addr:street\"=>\"Bethesda Road\",\"amenity\"=>\"fire_station\",\"operator\"=>\"Williamson Fire-Rescue\"" }, "geometry": { "type": "Point", "coordinates": [ -86.7989717, 35.7655769 ] } },
{ "type": "Feature", "properties": { "osm_id": "10050040474", "name": "Williamson County Rescue Squad (Station 14)", "other_tags": "\"addr:city\"=>\"Franklin\",\"addr:housenumber\"=>\"405\",\"addr:postcode\"=>\"37064\",\"addr:state\"=>\"TN\",\"addr:street\"=>\"Downs Boulevard\",\"amenity\"=>\"fire_station\",\"operator\"=>\"Williamson County Rescue Squad\",\"website\"=>\"https://www.wcfire.com/station-14\"" }, "geometry": { "type": "Point", "coordinates": [ -86.8831804, 35.9077476 ] } },
{ "type": "Feature", "properties": { "osm_id": "10186161438", "name": "Sunny View Fire & Rescue", "other_tags": "\"addr:city\"=>\"Mill Spring\",\"addr:housenumber\"=>\"5865\",\"addr:postcode\"=>\"28756\",\"addr:state\"=>\"NC\",\"addr:street\"=>\"NC-9\",\"amenity\"=>\"fire_station\",\"phone\"=>\"+18286259973\"" }, "geometry": { "type": "Point", "coordinates": [ -82.1855499, 35.3725181 ] } },
{ "type": "Feature", "properties": { "osm_id": "10204102123", "name": "Edneyville Fire & Rescue Sta 2 Fruitland Station", "other_tags": "\"addr:city\"=>\"Hendersonville\",\"addr:housenumber\"=>\"3101\",\"addr:postcode\"=>\"28792\",\"addr:state\"=>\"NC\",\"addr:street\"=>\"Fruitland Road\",\"amenity\"=>\"fire_station\",\"phone\"=>\"+18286857311\"" }, "geometry": { "type": "Point", "coordinates": [ -82.3939224, 35.39503 ] } },
{ "type": "Feature", "properties": { "osm_id": "10204102152", "name": "Leicester Fire Station 18-3", "other_tags": "\"addr:city\"=>\"Leicester\",\"addr:housenumber\"=>\"1075\",\"addr:postcode\"=>\"28748\",\"addr:state\"=>\"NC\",\"addr:street\"=>\"Newfound Road\",\"amenity\"=>\"fire_station\",\"phone\"=>\"+18286832989\"" }, "geometry": { "type": "Point", "coordinates": [ -82.730569, 35.6060569 ] } },
{ "type": "Feature", "properties": { "osm_id": "10207745237", "name": "Savannah Fire Department", "other_tags": "\"addr:city\"=>\"Sylva\",\"addr:housenumber\"=>\"18\",\"addr:postcode\"=>\"28779\",\"addr:state\"=>\"NC\",\"addr:street\"=>\"Ralph Tatham Road\",\"amenity\"=>\"fire_station\",\"phone\"=>\"+18285862900\"" }, "geometry": { "type": "Point", "coordinates": [ -83.264626, 35.2951851 ] } },
{ "type": "Feature", "properties": { "osm_id": "10239377113", "other_tags": "\"amenity\"=>\"fire_station\"" }, "geometry": { "type": "Point", "coordinates": [ -85.1744432, 36.1197087 ] } },
{ "type": "Feature", "properties": { "osm_id": "10242662839", "name": "Garren Creek Fire Station 23-2", "other_tags": "\"addr:city\"=>\"Fairview\",\"addr:housenumber\"=>\"10\",\"addr:postcode\"=>\"28730\",\"addr:state\"=>\"NC\",\"addr:street\"=>\"Flat Creek Road\",\"amenity\"=>\"fire_station\",\"phone\"=>\"+18286690024\"" }, "geometry": { "type": "Point", "coordinates": [ -82.3161783, 35.5591863 ] } },
{ "type": "Feature", "properties": { "osm_id": "10242678320", "name": "Fairview Fire Station 3-2", "other_tags": "\"addr:city\"=>\"Fairview\",\"addr:housenumber\"=>\"799\",\"addr:postcode\"=>\"28730\",\"addr:state\"=>\"NC\",\"addr:street\"=>\"Old Fort Road\",\"amenity\"=>\"fire_station\",\"operator\"=>\"Fairview Volunteer Fire Department\"" }, "geometry": { "type": "Point", "coordinates": [ -82.382465, 35.543266 ] } },
{ "type": "Feature", "properties": { "osm_id": "10271325365", "other_tags": "\"amenity\"=>\"fire_station\"" }, "geometry": { "type": "Point", "coordinates": [ -84.8342492, 36.1451122 ] } },
{ "type": "Feature", "properties": { "osm_id": "10282426958", "name": "Bill's Creek Fire Department", "other_tags": "\"addr:city\"=>\"Lake Lure\",\"addr:housenumber\"=>\"336\",\"addr:postcode\"=>\"28746\",\"addr:state\"=>\"NC\",\"addr:street\"=>\"Cedar Creek Road\",\"amenity\"=>\"fire_station\",\"phone\"=>\"(828) 625-3353\"" }, "geometry": { "type": "Point", "coordinates": [ -82.1367084, 35.4824141 ] } },
{ "type": "Feature", "properties": { "osm_id": "10286705828", "name": "Fairview Fire Station 3", "other_tags": "\"addr:housenumber\"=>\"133\",\"addr:street\"=>\"Upper Brush Creek Road\",\"amenity\"=>\"fire_station\",\"operator\"=>\"Fairview Volunteer Fire Department\"" }, "geometry": { "type": "Point", "coordinates": [ -82.4271175, 35.4815626 ] } },
{ "type": "Feature", "properties": { "osm_id": "10315890632", "other_tags": "\"amenity\"=>\"fire_station\"" }, "geometry": { "type": "Point", "coordinates": [ -85.123854, 36.4368553 ] } },
{ "type": "Feature", "properties": { "osm_id": "10558519448", "name": "Parkway Fire & Rescue", "other_tags": "\"addr:city\"=>\"Spruce Pine\",\"addr:housenumber\"=>\"3452\",\"addr:postcode\"=>\"28777\",\"addr:state\"=>\"NC\",\"addr:street\"=>\"Altapass Highway\",\"amenity\"=>\"fire_station\",\"phone\"=>\"(828) 765-0088\"" }, "geometry": { "type": "Point", "coordinates": [ -82.0230119, 35.8962723 ] } },
{ "type": "Feature", "properties": { "osm_id": "10566782619", "other_tags": "\"amenity\"=>\"fire_station\"" }, "geometry": { "type": "Point", "coordinates": [ -82.2265568, 35.0963535 ] } },
{ "type": "Feature", "properties": { "osm_id": "10570880962", "name": "Fall Creek Fire Department", "other_tags": "\"addr:city\"=>\"Elk Park\",\"addr:housenumber\"=>\"4296\",\"addr:postcode\"=>\"28622\",\"addr:state\"=>\"NC\",\"addr:street\"=>\"Beech Mountain Road\",\"amenity\"=>\"fire_station\"" }, "geometry": { "type": "Point", "coordinates": [ -81.9374139, 36.2051465 ] } },
{ "type": "Feature", "properties": { "osm_id": "10586805073", "name": "Brendletown Fire Station 75-2", "other_tags": "\"addr:city\"=>\"Morganton\",\"addr:housenumber\"=>\"3646\",\"addr:postcode\"=>\"28655\",\"addr:state\"=>\"NC\",\"addr:street\"=>\"Bennett Road\",\"amenity\"=>\"fire_station\",\"phone\"=>\"(828) 584-7720\"" }, "geometry": { "type": "Point", "coordinates": [ -81.7828979, 35.6598135 ] } },
{ "type": "Feature", "properties": { "osm_id": "10586808538", "name": "West End Fire Station 77-2", "other_tags": "\"addr:city\"=>\"Morganton\",\"addr:housenumber\"=>\"1905\",\"addr:postcode\"=>\"28655\",\"addr:state\"=>\"NC\",\"addr:street\"=>\"Jamestown Road\",\"amenity\"=>\"fire_station\"" }, "geometry": { "type": "Point", "coordinates": [ -81.776156, 35.7061336 ] } },
{ "type": "Feature", "properties": { "osm_id": "10594230246", "name": "Cosby Volunteer Fire Department", "other_tags": "\"addr:city\"=>\"Cosby\",\"addr:housenumber\"=>\"105\",\"addr:postcode\"=>\"37722\",\"addr:state\"=>\"TN\",\"addr:street\"=>\"TN-32\",\"amenity\"=>\"fire_station\",\"check_date\"=>\"2023-03-16\",\"phone\"=>\"+14234874439\"" }, "geometry": { "type": "Point", "coordinates": [ -83.2355425, 35.7932105 ] } },
{ "type": "Feature", "properties": { "osm_id": "10594230249", "name": "Fines Creek Volunteer Fire", "other_tags": "\"addr:city\"=>\"Clyde\",\"addr:housenumber\"=>\"244\",\"addr:postcode\"=>\"28721\",\"addr:state\"=>\"NC\",\"addr:street\"=>\"Fines Creek Road\",\"amenity\"=>\"fire_station\",\"phone\"=>\"+18286270102\"" }, "geometry": { "type": "Point", "coordinates": [ -82.955374, 35.6826946 ] } },
{ "type": "Feature", "properties": { "osm_id": "10601379946", "name": "Enka-Candler Fire Station 10-2", "other_tags": "\"addr:city\"=>\"Candler\",\"addr:housenumber\"=>\"2332\",\"addr:postcode\"=>\"28715\",\"addr:state\"=>\"NC\",\"addr:street\"=>\"Smokey Park Highway\",\"amenity\"=>\"fire_station\",\"phone\"=>\"+18286673025\"" }, "geometry": { "type": "Point", "coordinates": [ -82.7426546, 35.542495 ] } },
{ "type": "Feature", "properties": { "osm_id": "10603756715", "name": "Junalska Community Volunteer Fire", "other_tags": "\"addr:city\"=>\"Waynesville\",\"addr:housenumber\"=>\"90\",\"addr:postcode\"=>\"28785\",\"addr:state\"=>\"NC\",\"addr:street\"=>\"Old Clyde Road\",\"amenity\"=>\"fire_station\",\"phone\"=>\"+18284524404\"" }, "geometry": { "type": "Point", "coordinates": [ -82.9586606, 35.527745 ] } },
{ "type": "Feature", "properties": { "osm_id": "10616898991", "name": "Broad River Fire Department Station 3", "other_tags": "\"addr:city\"=>\"Black Mountain\",\"addr:housenumber\"=>\"44\",\"addr:postcode\"=>\"28711\",\"addr:state\"=>\"NC\",\"addr:street\"=>\"NC-9\",\"amenity\"=>\"fire_station\",\"phone\"=>\"+18286690448\"" }, "geometry": { "type": "Point", "coordinates": [ -82.2600109, 35.5464807 ] } },
{ "type": "Feature", "properties": { "osm_id": "10620477422", "name": "Black Mountain Fire Department", "other_tags": "\"addr:city\"=>\"Black Mountain\",\"addr:housenumber\"=>\"106\",\"addr:postcode\"=>\"28711\",\"addr:state\"=>\"NC\",\"addr:street\"=>\"Montreat Road\",\"amenity\"=>\"fire_station\",\"phone\"=>\"+18284199320\"" }, "geometry": { "type": "Point", "coordinates": [ -82.321002, 35.6189217 ] } },
{ "type": "Feature", "properties": { "osm_id": "10640795481", "name": "Swannanoa Fire Department-Main station", "other_tags": "\"addr:city\"=>\"Swannanoa\",\"addr:housenumber\"=>\"103\",\"addr:postcode\"=>\"28778\",\"addr:state\"=>\"NC\",\"addr:street\"=>\"South Avenue\",\"amenity\"=>\"fire_station\",\"phone\"=>\"+18286863335\"" }, "geometry": { "type": "Point", "coordinates": [ -82.3966291, 35.5986066 ] } },
{ "type": "Feature", "properties": { "osm_id": "10651967981", "name": "Pittman Center Volunteer Fire Department", "other_tags": "\"addr:city\"=>\"Gatlinburg\",\"addr:housenumber\"=>\"3529\",\"addr:postcode\"=>\"37738\",\"addr:state\"=>\"TN\",\"addr:street\"=>\"East Parkway\",\"amenity\"=>\"fire_station\",\"phone\"=>\"+18654369684\"" }, "geometry": { "type": "Point", "coordinates": [ -83.366084, 35.7598427 ] } },
{ "type": "Feature", "properties": { "osm_id": "10652010146", "name": "North Canton Volunteer Fire Department", "other_tags": "\"addr:city\"=>\"Canton\",\"addr:housenumber\"=>\"1685\",\"addr:postcode\"=>\"28716\",\"addr:state\"=>\"NC\",\"addr:street\"=>\"North Canton Road\",\"amenity\"=>\"fire_station\",\"phone\"=>\"+18282359048\"" }, "geometry": { "type": "Point", "coordinates": [ -82.8330977, 35.5597969 ] } },
{ "type": "Feature", "properties": { "osm_id": "10674994699", "name": "Pleasantville Volunteer Fire and Rescue", "other_tags": "\"amenity\"=>\"fire_station\"" }, "geometry": { "type": "Point", "coordinates": [ -87.5983152, 35.6580024 ] } },
{ "type": "Feature", "properties": { "osm_id": "10674994700", "name": "Lewis County Volunteer Fire Department", "other_tags": "\"amenity\"=>\"fire_station\"" }, "geometry": { "type": "Point", "coordinates": [ -87.558884, 35.549155 ] } },
{ "type": "Feature", "properties": { "osm_id": "10674994701", "name": "Hohenwald Fire Department", "other_tags": "\"amenity\"=>\"fire_station\"" }, "geometry": { "type": "Point", "coordinates": [ -87.5545684, 35.5490055 ] } },
{ "type": "Feature", "properties": { "osm_id": "10707652982", "name": "Clear Fork Area VFD", "other_tags": "\"amenity\"=>\"fire_station\"" }, "geometry": { "type": "Point", "coordinates": [ -84.7218736, 36.3535444 ] } },
{ "type": "Feature", "properties": { "osm_id": "10728729816", "other_tags": "\"amenity\"=>\"fire_station\"" }, "geometry": { "type": "Point", "coordinates": [ -84.5618709, 36.5004757 ] } },
{ "type": "Feature", "properties": { "osm_id": "10737137955", "name": "Glen Alpine Fire Department", "other_tags": "\"addr:city\"=>\"Morganton\",\"addr:housenumber\"=>\"103\",\"addr:postcode\"=>\"28655\",\"addr:state\"=>\"NC\",\"addr:street\"=>\"Pitt Street\",\"amenity\"=>\"fire_station\",\"phone\"=>\"+18285842622\"" }, "geometry": { "type": "Point", "coordinates": [ -81.6894844, 35.7478646 ] } },
{ "type": "Feature", "properties": { "osm_id": "10746815305", "name": "Roan Mountain Volunteer Fire Dept.", "other_tags": "\"addr:housenumber\"=>\"8478\",\"addr:postcode\"=>\"37687\",\"addr:street\"=>\"US 19E\",\"amenity\"=>\"fire_station\",\"contact:facebook\"=>\"RoanMountainVFD\"" }, "geometry": { "type": "Point", "coordinates": [ -82.0586343, 36.1939628 ] } },
{ "type": "Feature", "properties": { "osm_id": "10774404940", "name": "Gordonsville Fire Department", "other_tags": "\"addr:city\"=>\"Gordonsville\",\"addr:postcode\"=>\"38563\",\"addr:state\"=>\"TN\",\"addr:street\"=>\"Fairview Circle\",\"amenity\"=>\"fire_station\",\"operator\"=>\"City of Gordonsville\",\"wikipedia\"=>\"en:Gordonsville Fire Department\"" }, "geometry": { "type": "Point", "coordinates": [ -85.9292532, 36.1733795 ] } }
]
}
